facility_id,facility_name,total_emissions,naics_code,state,latitude,longitude,year,parent_company,ownership_pct,clean_parent,ticker
1003188,3M BROWNWOOD,36879.412,326113.0,TX,31.671177,-98.996513,2010,3M CO,100.0,3M CO,MMM
1005043,3M CO,75803.06,541712.0,MN,44.951,-92.9959,2010,3M CO,100.0,3M CO,MMM
1003739,3M CO - GUIN,28749.996,326113.0,AL,33.96672,-87.899855,2010,3M CO,100.0,3M CO,MMM
1007698,3M CO - WAUSAU DOWNTOWN,26048.552,212313.0,WI,44.95018,-89.63766,2010,3M CO,100.0,3M CO,MMM
1004206,3M COMPANY,50947.456,325211.0,AL,34.641667,-87.038611,2010,3M CO,100.0,3M CO,MMM
1006665,3M CORDOVA,28987.888,325998.0,IL,41.755,-90.284167,2010,3M CO,100.0,3M CO,MMM
1004836,3M Cottage Grove Center - Site,44522.608,325998.0,MN,44.789444,-92.908333,2010,3M CO,100.0,3M CO,MMM
1003408,3M INDUSTRIAL MINERAL PRODUCTS DIVISION,28192.044,333120.0,AR,34.708919,-92.239492,2010,3M CO,100.0,3M CO,MMM
1004914,3M MAGNETIC TAPE MANUFACTURING DIVISION,40696.996,322222.0,MN,44.879677,-94.359598,2010,3M CO,100.0,3M CO,MMM
1004804,3M NEVADA PLANT,29570.988,326113.0,MO,37.83442,-94.330397,2010,3M CO,100.0,3M CO,MMM
1000766,59th Street,271673.922,221330.0,NY,40.7711,-73.9911,2010,CONSOLIDATED EDISON INC,100.0,CONSOLIDATED EDISON INC,ED
1000767,74th Street,387617.228,221330.0,NY,40.768,-73.9515,2010,CONSOLIDATED EDISON INC,100.0,CONSOLIDATED EDISON INC,ED
1001033,A B Brown Generating Station,2188497.224,221112.0,IN,37.9053,-87.715,2010,CENTERPOINT ENERGY INC,100.0,CENTERPOINT ENERGY INC,CNP
1002983,ABBOTT PARK FACILITY,105472.708,325412.0,IL,42.30227,-87.89065,2010,ABBOTT LABORATORIES,100.0,ABBOTT LABORATORIES,ABT
1007514,ABBVIE LTD.,117314.526,325411.0,PR,18.433237,-66.570509,2010,ABBVIE INC,100.0,ABBVIE INC,ABBV
1005601,ACME BRICK CO ELGIN PLANT,27547.0,327121.0,TX,30.32903,-97.29207,2010,BERKSHIRE HATHAWAY INC,100.0,BERKSHIRE HATHAWAY INC,BRK.B
1002154,ADM - MANKATO,132818.334,311225.0,MN,44.186805,-93.995493,2010,ARCHER DANIELS MIDLAND CO,100.0,ARCHER DANIELS MIDLAND CO,ADM
1006047,ADM CORN PROCESSING,3078133.058,311221.0,IA,41.928594,-91.687203,2010,ARCHER DANIELS MIDLAND CO,100.0,ARCHER DANIELS MIDLAND CO,ADM
1006208,ADM CORN PROCESSING,1510150.892,311221.0,IA,41.818117,-90.214731,2010,ARCHER DANIELS MIDLAND CO,100.0,ARCHER DANIELS MIDLAND CO,ADM
1000034,ADM MILLING COMPANY,141764.544,311222.0,IA,41.626329,-93.583205,2010,ARCHER DANIELS MIDLAND CO,100.0,ARCHER DANIELS MIDLAND CO,ADM
1000376,ADM QUINCY,186738.51,311222.0,IL,39.90565,-91.41015,2010,ARCHER DANIELS MIDLAND CO,100.0,ARCHER DANIELS MIDLAND CO,ADM
1006080,ADM SOUTHERN CELLULOSE PROD.IN,28791.592,322110.0,TN,34.997921,-85.318581,2010,ARCHER DANIELS MIDLAND CO,100.0,ARCHER DANIELS MIDLAND CO,ADM
1001991,ADRIAN LANDFILL,75991.0,562212.0,MI,41.890683,-83.992445,2010,REPUBLIC SERVICES INC,100.0,REPUBLIC SERVICES INC,RSG
1001633,ADS-CEDAR HILL LANDFILL,97335.0,562212.0,AL,33.676247,-86.25444,2010,WASTE MANAGEMENT INC,100.0,WASTE MANAGEMENT INC,WM
1001636,ADS-PECAN ROW-EVERGREEN LANDFILLS,309107.5,562212.0,GA,30.81425,-83.35981,2010,WASTE MANAGEMENT INC,100.0,WASTE MANAGEMENT INC,WM
1006790,ADS-STAR RIDGE LANDFILL,63017.5,562212.0,AL,33.605845,-86.5201,2010,WASTE MANAGEMENT INC,100.0,WASTE MANAGEMENT INC,WM
1002094,ADS/MCLEAN COUNTY LANDFILL,17136.3,562212.0,IL,40.47046,-89.0377,2010,REPUBLIC SERVICES INC,100.0,REPUBLIC SERVICES INC,RSG
1001845,ADVANCED DISPOSAL CRANBERRY CREEK LANDFILL LLC,25777.95,562212.0,WI,44.4093,-89.854855,2010,WASTE MANAGEMENT INC,100.0,WASTE MANAGEMENT INC,WM
1003038,"ADVANCED DISPOSAL MAPLE HILL LANDFILL, LLC",95655.0,562212.0,MO,39.7318,-92.53866,2010,WASTE MANAGEMENT INC,100.0,WASTE MANAGEMENT INC,WM
1006979,ADVANCED DISPOSAL OAK RIDGE LANDFILL,29895.0,562212.0,MO,38.549361,-90.530806,2010,WASTE MANAGEMENT INC,100.0,WASTE MANAGEMENT INC,WM
1001637,ADVANCED DISPOSAL ORCHARD HILLS LANDFILL INC,186317.8,562212.0,IL,42.14,-89.085,2010,WASTE MANAGEMENT INC,100.0,WASTE MANAGEMENT INC,WM
1006963,ADVANCED DISPOSAL VALLEY VIEW LANDFILL INC,51653.7,562212.0,IL,39.822232,-89.043692,2010,WASTE MANAGEMENT INC,100.0,WASTE MANAGEMENT INC,WM
1005310,AES - PUERTO RICO COGENERATION PLANT,3284053.384,221112.0,PR,17.9451,-66.1503,2010,AES CORP,100.0,AES CORP,AES
1001444,AES Alamitos,540112.6,221112.0,CA,33.7688,-118.1009,2010,AES CORP,100.0,AES CORP,AES
1001447,AES Huntington Beach,572232.328,221112.0,CA,33.6436,-117.9788,2010,AES CORP,100.0,AES CORP,AES
1001450,AES Redondo Beach,93265.704,221112.0,CA,33.8504,-118.395,2010,AES CORP,100.0,AES CORP,AES
1001223,AES Warrior Run,1426541.518,221112.0,MD,39.5944,-78.7456,2010,AES CORP,100.0,AES CORP,AES
1003013,AIR PRODUCTS & CHEMICAL INC - LAKE CHARLES FACILITY,723018.0,325120.0,LA,30.237363,-93.285908,2010,AIR PRODUCTS & CHEMICALS INC,100.0,AIR PRODUCTS & CHEMICALS INC,APD
1002698,AIR PRODUCTS & CHEMICALS INC - Geismar SMR,59183.0,325120.0,LA,30.183808,-90.9876,2010,AIR PRODUCTS & CHEMICALS INC,100.0,AIR PRODUCTS & CHEMICALS INC,APD
1003009,AIR PRODUCTS & CHEMICALS INC - INDUSTRIAL GAS PRODUCTION FACILITY,313434.22,325120.0,LA,30.029033,-89.900517,2010,AIR PRODUCTS & CHEMICALS INC,100.0,AIR PRODUCTS & CHEMICALS INC,APD
1002121,AIR PRODUCTS & CHEMICALS INC MARTINEZ WATERFRONT ROAD,810408.2,325120.0,CA,38.026667,-122.067222,2010,AIR PRODUCTS & CHEMICALS INC,100.0,AIR PRODUCTS & CHEMICALS INC,APD
1002122,"AIR PRODUCTS & CHEMICALS, INC, Tesoro Martinez",250407.56,325120.0,CA,38.026667,-122.067222,2010,AIR PRODUCTS & CHEMICALS INC,100.0,AIR PRODUCTS & CHEMICALS INC,APD
1005809,AIR PRODUCTS AND CHEMICALS INC - CATLETTSBURG HYDROGEN PLANT,256244.3,325120.0,KY,38.384444,-82.598528,2010,AIR PRODUCTS & CHEMICALS INC,100.0,AIR PRODUCTS & CHEMICALS INC,APD
1002727,AIR PRODUCTS AND CHEMICALS INC - GARYVILLE,859226.0,325120.0,LA,30.075832,-90.624885,2010,AIR PRODUCTS & CHEMICALS INC,100.0,AIR PRODUCTS & CHEMICALS INC,APD
1002123,AIR PRODUCTS AND CHEMICALS INCORPORATED,47124.4,325120.0,CA,38.529722,-121.398889,2010,AIR PRODUCTS & CHEMICALS INC,100.0,AIR PRODUCTS & CHEMICALS INC,APD
1002430,AIR PRODUCTS BAYTOWN PLANT,521749.816,325120.0,TX,29.757778,-95.023056,2010,AIR PRODUCTS & CHEMICALS INC,100.0,AIR PRODUCTS & CHEMICALS INC,APD
1002257,AIR PRODUCTS CARSON HYDROGEN PLANT,620797.9,325120.0,CA,33.812778,-118.231389,2010,AIR PRODUCTS & CHEMICALS INC,100.0,AIR PRODUCTS & CHEMICALS INC,APD
1002435,AIR PRODUCTS WILMINGTON HYDROGEN PLANT,677726.7,325120.0,CA,33.780833,-118.241111,2010,AIR PRODUCTS & CHEMICALS INC,100.0,AIR PRODUCTS & CHEMICALS INC,APD
1006088,AKRON REGIONAL LANDFILL *,7467.479175,562212.0,OH,41.151282,-81.559298,2010,WASTE MANAGEMENT INC,100.0,WASTE MANAGEMENT INC,WM
1007272,ALADDIN MILLS - ANTIOCH RD PLA NT,50319.414,314110.0,GA,34.73559,-84.94996,2010,MOHAWK INDUSTRIES INC,100.0,MOHAWK INDUSTRIES INC,MHK
1003402,ALBEMARLE CORPORATION HOUSTON PLANT,85377.0,325199.0,TX,29.742498,-95.165513,2010,ALBEMARLE CORP,100.0,ALBEMARLE CORP,ALB
1004307,ALBEMARLE CORPORATION-SOUTH PLANT,83600.95,325188.0,AR,33.1756,-93.2169,2010,ALBEMARLE CORP,100.0,ALBEMARLE CORP,ALB
1005862,ALLEGANY BALLISTICS LABORATORY,27716.636,336415.0,WV,39.3972662,-78.9966888,2010,NORTHROP GRUMMAN CORP,100.0,NORTHROP GRUMMAN CORP,NOC
1007645,ALLIANCE SANI LDFL,76842.854284,562212.0,PA,41.38835,-75.737311,2010,WASTE MANAGEMENT INC,100.0,WASTE MANAGEMENT INC,WM
1004709,ALTAMONT GAS PLANT,25137.85,211112.0,UT,40.35932,-110.28605,2010,KINDER MORGAN INC,100.0,KINDER MORGAN INC,KMI
1007030,AMERICAN PROTEINS INCORPORATED HANCEVILLE DIVISION,77549.78,311613.0,AL,33.955694,-86.815268,2010,TYSON FOODS INC,100.0,TYSON FOODS INC,TSN
1005072,"AMGEN MANUFACTURING, LIMITED",27381.406,325412.0,PR,18.235793,-65.904429,2010,AMGEN INC,100.0,AMGEN INC,AMGN
1007839,ANDERSON LANDFILL,35395.704675,562212.0,CA,40.41754,-122.35787,2010,WASTE MANAGEMENT INC,100.0,WASTE MANAGEMENT INC,WM
1005969,ANDERSONS CLYMERS ETHANOL LLC,178681.5,325193.0,IN,40.719022,-86.435982,2010,MARATHON PETROLEUM CORP,50.0,MARATHON PETROLEUM CORP,MPC
1006864,"ANP Bellingham Energy Company, LLC",691636.736,221112.0,MA,42.1113,-71.4529,2010,Vistra Corp,100.0,VISTRA CORP,VST
1006657,"ANP Blackstone Energy Company, LLC",699837.556,221112.0,MA,42.0575,-71.5172,2010,Vistra Corp,100.0,VISTRA CORP,VST
1007710,ANTELOPE VALLEY RECYCLING AND DISPOSAL FACILITY,74840.577122,562212.0,CA,34.56786,-118.13934,2010,WASTE MANAGEMENT INC,100.0,WASTE MANAGEMENT INC,WM
1004003,APACHE JUNCTION LANDFILL,133527.5,562212.0,AZ,33.377246,-111.528771,2010,REPUBLIC SERVICES INC,100.0,REPUBLIC SERVICES INC,RSG
1004352,APEX REGIONAL LANDFILL,55467.48,562212.0,NV,36.29423,-115.28183,2010,REPUBLIC SERVICES INC,100.0,REPUBLIC SERVICES INC,RSG
1001423,APS Saguaro Power Plant,6348.328,221112.0,AZ,32.5517,-111.3,2010,PINNACLE WEST CAPITAL CORP,100.0,PINNACLE WEST CAPITAL CORP,PNW
1001422,APS West Phoenix Power Plant,779796.6,221112.0,AZ,33.4417,-112.1583,2010,PINNACLE WEST CAPITAL CORP,100.0,PINNACLE WEST CAPITAL CORP,PNW
1002916,ARCHER DANIEL MIDLAND COMPANY,1042787.52,311221.0,NE,41.42139,-97.288612,2010,ARCHER DANIELS MIDLAND CO,100.0,ARCHER DANIELS MIDLAND CO,ADM
1001945,ARCHER DANIELS MIDLAND,213512.098,311221.0,MN,44.474067,-95.783679,2010,ARCHER DANIELS MIDLAND CO,100.0,ARCHER DANIELS MIDLAND CO,ADM
1003215,ARCHER DANIELS MIDLAND,48851.416,311222.0,IN,40.2853,-86.5479,2010,ARCHER DANIELS MIDLAND CO,100.0,ARCHER DANIELS MIDLAND CO,ADM
1005935,ARCHER DANIELS MIDLAND COMPANY,171443.456,311222.0,NE,40.86667,-96.619116,2010,ARCHER DANIELS MIDLAND CO,100.0,ARCHER DANIELS MIDLAND CO,ADM
1005940,ARCHER DANIELS MIDLAND PROCESSING,38370.754,311225.0,ND,48.062189,-100.924361,2010,ARCHER DANIELS MIDLAND CO,100.0,ARCHER DANIELS MIDLAND CO,ADM
1003456,ARDEN LDFL,40903.008004,562212.0,PA,40.208427,-80.264771,2010,WASTE MANAGEMENT INC,100.0,WASTE MANAGEMENT INC,WM
1002515,ARTESIA GAS PLANT,60714.236,211112.0,NM,32.7564,-104.2111,2010,PHILLIPS 66,86.8,PHILLIPS 66,PSX
1007800,ATASCOCITA RECYCLING AND DISPOSAL FACILITY,292165.362699,562212.0,TX,29.95135,-95.24966,2010,WASTE MANAGEMENT INC,100.0,WASTE MANAGEMENT INC,WM
1002571,ATK Launch Systems Inc,48084.244,336415.0,UT,41.646081,-112.431023,2010,NORTHROP GRUMMAN CORP,100.0,NORTHROP GRUMMAN CORP,NOC
1003826,ATLANTIC WASTE DISPOSAL INC - SUSSEX COUNTY LAND,187533.916557,562212.0,VA,37.061279,-77.177106,2010,WASTE MANAGEMENT INC,100.0,WASTE MANAGEMENT INC,WM
1006132,AUTUMN HILLS RECYCLING AND DISPOSAL FACILITY,88772.335661,562212.0,MI,42.780647,-85.920569,2010,WASTE MANAGEMENT INC,100.0,WASTE MANAGEMENT INC,WM
1003033,AVA LANDFILL,62072.148,562212.0,NY,43.461,-75.412,2010,ONEIDA HERKIMER SOLID WASTE MANAGEMENT AUTHORITY INC,100.0,ONEIDA HERKIMER SOLID WASTE MANAGEMENT AUTHORITY INC,WM
1007682,AZUSA LAND RECLAMATION CO INC INERT LF,105657.237475,562212.0,CA,34.11432,-117.92861,2010,WASTE MANAGEMENT INC,100.0,WASTE MANAGEMENT INC,WM
1000378,Abbott Laboratories,26573.7,311514.0,AZ,32.894,-111.78312,2010,ABBOTT LABORATORIES,100.0,ABBOTT LABORATORIES,ABT
1003205,Abbott Nutrition - A Division of Abbott Laboratories,27525.194,311514.0,VA,37.130556,-79.267778,2010,ABBOTT LABORATORIES,100.0,ABBOTT LABORATORIES,ABT
1007357,Abilene Regional Landfill,83297.5,562212.0,TX,32.534633,-99.753812,2010,REPUBLIC SERVICES INC,100.0,REPUBLIC SERVICES INC,RSG
1001347,Acadia Power Station,1226380.756,221112.0,LA,30.4284,-92.4112,2010,ENTERGY CORP,50.0,ENTERGY CORP,ETR
1006553,"Advanced Tri-Gen Power Systems, LLC",125856.376,221112.0,IL,40.84299,-89.56419,2010,CATERPILLAR INC,100.0,CATERPILLAR INC,CAT
1006943,Air Products LLC - Pasadena SMR,572713.0,325120.0,TX,29.716191,-95.194361,2010,AIR PRODUCTS & CHEMICALS INC,100.0,AIR PRODUCTS & CHEMICALS INC,APD
1003160,Air Products La Porte Facility,57848.254,325120.0,TX,29.702,-95.071,2010,AIR PRODUCTS & CHEMICALS INC,100.0,AIR PRODUCTS & CHEMICALS INC,APD
1006402,Air Products Port Arthur Facility,2395575.22,325120.0,TX,29.859444,-93.965833,2010,AIR PRODUCTS & CHEMICALS INC,100.0,AIR PRODUCTS & CHEMICALS INC,APD
1004586,"Air Products and Chemicals, Inc. - BR SMR",362429.0,325120.0,LA,30.493536,-91.187226,2010,AIR PRODUCTS & CHEMICALS INC,100.0,AIR PRODUCTS & CHEMICALS INC,APD
1005852,"Air Products and Chemicals, Inc. - Joliet, IL H2 Plant",76077.1,325120.0,IL,41.413831,-88.18346,2010,AIR PRODUCTS & CHEMICALS INC,100.0,AIR PRODUCTS & CHEMICALS INC,APD
1003570,Albemarle Corporation Bayport Plant,103883.0,325188.0,TX,29.64174,-95.0654,2010,ALBEMARLE CORP,100.0,ALBEMARLE CORP,ALB
1003411,Alderson Regional Landfill,37839.84145,562212.0,OK,34.89762,-95.6836,2010,REPUBLIC SERVICES INC,100.0,REPUBLIC SERVICES INC,RSG
1000691,Allen S King,3445538.476,221112.0,MN,45.03,-92.7786,2010,XCEL ENERGY INC,100.0,XCEL ENERGY INC,XEL
1000039,Alstom Grid LLC,170.0,335313.0,PA,40.124713,-79.930463,2010,GENERAL ELECTRIC CO,100.0,GENERAL ELECTRIC CO,GE
1007699,Altamont Landfill & Resource Recovery Facility,211971.382709,562212.0,CA,37.753333,-121.648611,2010,WASTE MANAGEMENT INC,100.0,WASTE MANAGEMENT INC,WM
1004465,American Canyon Landfill,51675.5,562212.0,CA,38.1809,-122.281,2010,NAPA VALLEGO WASTE MANAGEMENT AUTHORITY,100.0,NAPA VALLEGO WASTE MANAGEMENT AUTHORITY,WM
1007915,"American Proteins, Inc. - Cumming",55594.4,311613.0,GA,34.281587,-84.058034,2010,TYSON FOODS INC,100.0,TYSON FOODS INC,TSN
1007246,Anclote Power Plant,1483116.344,221112.0,FL,28.1844,-82.7887,2010,DUKE ENERGY CORP,100.0,DUKE ENERGY CORP,DUK
1001097,Angus Anson,58195.848,221112.0,SD,43.6033,-96.6369,2010,XCEL ENERGY INC,100.0,XCEL ENERGY INC,XEL
1000068,Apex Generating Station,688559.448,221112.0,NV,36.4178,-114.9622,2010,SOUTHERN CALIFORNIA PUBLIC POWER AUTHORITY,100.0,SOUTHERN CALIFORNIA PUBLIC POWER AUTHORITY,SO
1005661,Archer Daniels Midland Co.,4466380.076,311221.0,IL,39.8675,-88.885,2010,ARCHER DANIELS MIDLAND CO,100.0,ARCHER DANIELS MIDLAND CO,ADM
1005286,Arconic Inc. - Cleveland Works,66769.24,332112.0,OH,41.4476,-81.67533,2010,HOWMET AEROSPACE INC,100.0,HOWMET AEROSPACE INC,HWM
1001760,Arkansas Loop & Simpson Treating Plants,74564.72,211111.0,CO,37.0532,-107.7855,2010,KINDER MORGAN INC,49.0,KINDER MORGAN INC,KMI
1001609,Arsenal Hill Power Plant,576710.164,221112.0,LA,32.5181,-93.7611,2010,AMERICAN ELECTRIC POWER CO INC,100.0,AMERICAN ELECTRIC POWER CO INC,AEP
1007180,Asheville Steam Electric Plant,2404067.23,221112.0,NC,35.4714,-82.5431,2010,DUKE ENERGY CORP,100.0,DUKE ENERGY CORP,DUK
1000132,Astoria Gas Turbine Power,41357.51,221112.0,NY,40.7864,-73.9133,2010,NRG ENERGY INC,100.0,NRG ENERGY INC,NRG
1003450,Atkinson County - S.R. 50 MSW Landfill,24599.75,562212.0,GA,31.369779,-83.014653,2010,SOLID WASTE MANAGEMENT AUTHORITY OF ATKINSON COUNTY,100.0,SOLID WASTE MANAGEMENT AUTHORITY OF ATKINSON COUNTY,WM
1006523,Atmos Energy Corporation - APT Howard,35044.568,486210.0,TX,32.92548,-96.81613,2010,ATMOS ENERGY CORP,100.0,ATMOS ENERGY CORP,ATO
1007247,Attala Generating Plant,590134.412,221112.0,MS,33.0142,-89.6758,2010,ENTERGY CORP,100.0,ENTERGY CORP,ETR
1001379,Audrain Power Plant,36163.316,221112.0,MO,39.3092,-91.5369,2010,AMEREN CORP,100.0,AMEREN CORP,AEE
1003412,BACKRIDGE LANDFILL,89705.0,562212.0,MO,40.0161,-91.5217,2010,REPUBLIC SERVICES INC,100.0,REPUBLIC SERVICES INC,RSG
1004406,BARSTOW SANITARY LANDFILL,40116.5,562212.0,CA,34.837222,-117.017655,2010,SAN BERNARDINO COUNTY SOLID WASTE MANAGEMENT DIV,100.0,SAN BERNARDINO COUNTY SOLID WASTE MANAGEMENT DIV,WM
1007684,BAYTOWN LANDFILL,63153.8182,562212.0,TX,29.680398,-94.930647,2010,WASTE MANAGEMENT INC,100.0,WASTE MANAGEMENT INC,WM
1006416,BEAUMONT POLYETHYLENE PLANT,19872.876,325211.0,TX,30.068247,-94.23005,2010,EXXON MOBIL CORP,100.0,EXXON MOBIL CORP,XOM
1003744,BEECHER LANDFILL,82098.25,562212.0,IL,41.384792,-87.63704,2010,WASTE MANAGEMENT INC,100.0,WASTE MANAGEMENT INC,WM
1003718,BENTONITE PERFORMANCE MINERALS LLC LOVELL,42988.0,212325.0,WY,44.82434,-108.14365,2010,HALLIBURTON CO,100.0,HALLIBURTON CO,HAL
1003913,BENTONITE PERFORMANCE MINERALS-COLONY,36223.61,212325.0,SD,44.68109,-103.8518,2010,HALLIBURTON CO,100.0,HALLIBURTON CO,HAL
1006223,BIG RIVER LANDFILL,186743.453075,562212.0,MS,33.408492,-90.962802,2010,REPUBLIC SERVICES INC,100.0,REPUBLIC SERVICES INC,RSG
1004354,BIGFOOT RUN LANDFILL,9097.7,562212.0,OH,39.36463,-84.168816,2010,REPUBLIC SERVICES INC,100.0,REPUBLIC SERVICES INC,RSG
1000383,BIOGEN INC,35793.65,325414.0,MA,42.36779,-71.07418,2010,BIOGEN INC,100.0,BIOGEN INC,BIIB
1001132,BLOCK 31 GAS PLANT,103134.92,211111.0,TX,31.4417,-102.462,2010,OCCIDENTAL PETROLEUM CORP,100.0,OCCIDENTAL PETROLEUM CORP,OXY
1005891,BLUE RIDGE LANDFILL,216960.0,562212.0,TX,29.555893,-95.441863,2010,REPUBLIC SERVICES INC,100.0,REPUBLIC SERVICES INC,RSG
1004082,BLUE RIDGE RECYCLING & DISPOSAL FACILITY,84225.6,562212.0,KY,37.71186,-83.97614,2010,WASTE MANAGEMENT INC,100.0,WASTE MANAGEMENT INC,WM
1000638,BOEING HELICOPTER DIV,29215.392,336411.0,PA,39.862773,-75.321425,2010,THE BOEING CO,100.0,THE BOEING CO,BA
1006301,BORGER REFINERY,2189968.576,324110.0,TX,35.70306,-101.36305,2010,PHILLIPS 66,100.0,PHILLIPS 66,PSX
1006661,BOULDER LANDFILL,11074.886125,562212.0,CO,39.95028,-105.201274,2010,REPUBLIC SERVICES INC,100.0,REPUBLIC SERVICES INC,RSG
1007367,BPE GPRP Grasslands Gas Plant,49742.312,211112.0,ND,47.59043,-104.0005,2010,ONEOK INC,100.0,ONEOK INC,OKE
1003356,BRADLEY COUNTY LANDFILL,123624.25,562212.0,TN,35.156568,-84.958905,2010,REPUBLIC SERVICES INC,100.0,REPUBLIC SERVICES INC,RSG
1007951,BRADLEY LANDFILL & RECYCLING CENTER,179337.916197,562212.0,CA,34.2394,-118.3846,2010,WASTE MANAGEMENT INC,100.0,WASTE MANAGEMENT INC,WM
1004026,BRICKYARD DISPOSAL LANDFILL,50847.14,562212.0,IL,40.099998,-87.599998,2010,REPUBLIC SERVICES INC,100.0,REPUBLIC SERVICES INC,RSG
1007026,BRIDGETON LANDFILL,14387.5,562212.0,MO,38.77,-90.44526,2010,REPUBLIC SERVICES INC,100.0,REPUBLIC SERVICES INC,RSG
1006828,BRISTOL MYERS SQUIBB INC,61896.966,325412.0,NJ,40.46957,-74.438488,2010,BRISTOL-MYERS SQUIBB CO,100.0,BRISTOL-MYERS SQUIBB CO,BMY
1002436,BROOME CO NANTICOKE LANDFILL,87913.5,562212.0,NY,42.24379,-75.98545,2010,BROOME COUNTY DIV OF SOLID WASTE MANAGEMENT,100.0,BROOME COUNTY DIV OF SOLID WASTE MANAGEMENT,WM
1001726,BROWN-FORMAN DISTILLERY (FORMERLY EARLY TIMES DISTILLERS CO),46217.392,312140.0,KY,38.20832,-85.79272,2010,BROWN-FORMAN CORP,100.0,BROWN-FORMAN CORP,BF.B
1007680,BRUNSWICK WASTE MANAGEMENT FACILITY,101007.5,562212.0,VA,36.744298,-77.802739,2010,REPUBLIC SERVICES INC,100.0,REPUBLIC SERVICES INC,RSG
1005022,BUNGE NORTH AMERICA INC,44127.784,311222.0,LA,29.939649,-90.348691,2010,BUNGE CHEVRON AG RENEWABLES LLC,100.0,BUNGE CHEVRON AG RENEWABLES LLC,CVX
1005019,BUNGE NORTH AMERICA INC,88275.514,311222.0,IL,37.01433,-89.17734,2010,BUNGE CHEVRON AG RENEWABLES LLC,100.0,BUNGE CHEVRON AG RENEWABLES LLC,CVX
1007743,BURNSVILLE SANITARY LANDFILL,76623.485735,562212.0,MN,44.785343,-93.318085,2010,WASTE MANAGEMENT INC,100.0,WASTE MANAGEMENT INC,WM
1004355,BUTLER COUNTY LANDFILL,19110.0,562212.0,MO,36.88588,-90.3113,2010,REPUBLIC SERVICES INC,100.0,REPUBLIC SERVICES INC,RSG
1007815,BUTTERFIELD STATION LANDFILL,29955.798018,562212.0,AZ,33.077084,-112.280658,2010,WASTE MANAGEMENT INC,100.0,WASTE MANAGEMENT INC,WM
1002087,Bainbridge Compressor Station,116104.31,486210.0,IN,39.75982,-86.85381,2010,PHILLIPS 66,25.0,PHILLIPS 66,PSX
1007302,Baldwin Energy Complex,11829246.98,221112.0,IL,38.205,-89.855,2010,Vistra Corp,100.0,VISTRA CORP,VST
1002877,"Barrick Goldstrike Mines, Inc.",255534.81,212221.0,NV,40.981115,-116.37644,2010,NEWMONT CORP,38.5,NEWMONT CORP,NEM
1001412,Barry,10361598.894,221112.0,AL,31.0069,-88.0103,2010,THE SOUTHERN CO,100.0,THE SOUTHERN CO,SO
1000978,Bay Front,133255.398,221112.0,WI,46.5869,-90.9017,2010,XCEL ENERGY INC,100.0,XCEL ENERGY INC,XEL
1002343,Beatrice Compressor Station,28369.944,486210.0,NE,40.220033,-96.745841,2010,BERKSHIRE HATHAWAY INC,100.0,BERKSHIRE HATHAWAY INC,BRK.B
1002488,Beaver,87270.272,221112.0,OR,46.172817,-123.17502,2010,PORTLAND GENERAL ELECTRIC CO,100.0,PORTLAND GENERAL ELECTRIC CO,GE
1002006,Beaver Compressor Station,45316.18,486210.0,OK,36.61706,-100.425269,2010,BERKSHIRE HATHAWAY INC,100.0,BERKSHIRE HATHAWAY INC,BRK.B
1001187,Belews Creek,12512904.198,221112.0,NC,36.2811,-80.0603,2010,DUKE ENERGY CORP,100.0,DUKE ENERGY CORP,DUK
1001011,Belle River,8194732.742,221112.0,MI,42.7748,-82.4945,2010,DTE ENERGY CO,100.0,DTE ENERGY CO,DTE
1004564,Belle River Compressor Station,42808.434,221210.0,MI,42.788,-82.5332,2010,DTE ENERGY CO,100.0,DTE ENERGY CO,DTE
1001207,Bellingham,433650.39,221112.0,MA,42.0925,-71.4833,2010,NEXTERA ENERGY INC,100.0,NEXTERA ENERGY INC,NEE
1003413,Benson Valley LF,71161.948,562212.0,KY,38.130462,-84.98666,2010,REPUBLIC SERVICES INC,100.0,REPUBLIC SERVICES INC,RSG
1002444,Bertrand Compressor Station,86532.13,486210.0,NE,40.5087,-99.478382,2010,PHILLIPS 66,25.0,PHILLIPS 66,PSX
1001587,Big Sandy,5914486.3,221112.0,KY,38.1707,-82.6176,2010,AMERICAN ELECTRIC POWER CO INC,100.0,AMERICAN ELECTRIC POWER CO INC,AEP
1006218,Billy Wright Landfill,25402.5,562212.0,CA,37.0388,-120.9729,2010,MERCED COUNTY REGIONAL WASTE MANAGEMENT AUTHORITY,100.0,MERCED COUNTY REGIONAL WASTE MANAGEMENT AUTHORITY,WM
1000689,Black Dog,1468849.78,221112.0,MN,44.8108,-93.2501,2010,XCEL ENERGY INC,100.0,XCEL ENERGY INC,XEL
1004551,Blacks Fork Gas Plant,62656.46,211112.0,WY,41.554684,-110.048865,2010,MARATHON PETROLEUM CORP,100.0,MARATHON PETROLEUM CORP,MPC
1005585,Blanchard Refining Company LLC,7627297.27,324110.0,TX,29.3775,-94.9328,2010,MARATHON PETROLEUM CORP,100.0,MARATHON PETROLEUM CORP,MPC
1000424,Blue Lake Generating Plant,75008.806,221112.0,MN,44.7855,-93.4315,2010,XCEL ENERGY INC,100.0,XCEL ENERGY INC,XEL
1000141,Blue Spruce Energy Center,242028.404,221112.0,CO,39.7436,-104.68,2010,XCEL ENERGY INC,100.0,XCEL ENERGY INC,XEL
1000640,Boeing Commercial Airplanes - Everett,64332.208,336411.0,WA,47.91463,-122.279787,2010,THE BOEING CO,100.0,THE BOEING CO,BA
1000637,Boeing-St. Louis,25130.954,336411.0,MO,38.741557,-90.341893,2010,THE BOEING CO,100.0,THE BOEING CO,BA
1001727,"Boomvang Spar, East Breaks 643 Platform",32862.074,211111.0,TX,27.3536,-93.3747,2010,OCCIDENTAL PETROLEUM CORP,100.0,OCCIDENTAL PETROLEUM CORP,OXY
1001505,Bowen,21031954.072,221112.0,GA,34.1256,-84.9192,2010,THE SOUTHERN CO,100.0,THE SOUTHERN CO,SO
1005892,Broadhurst Environmental Landfill,181277.5,562212.0,GA,31.4847,-81.9898,2010,REPUBLIC SERVICES INC,100.0,REPUBLIC SERVICES INC,RSG
1000831,Buck,1098234.746,221112.0,NC,35.7133,-80.3767,2010,DUKE ENERGY CORP,100.0,DUKE ENERGY CORP,DUK
1001553,Burlington (IA),919601.642,221112.0,IA,40.7412,-91.1168,2010,ALLIANT ENERGY CORP,100.0,ALLIANT ENERGY CORP,LNT
1007102,Bushton Compressor Station,27376.396,486210.0,KS,38.496875,-98.418422,2010,BERKSHIRE HATHAWAY INC,100.0,BERKSHIRE HATHAWAY INC,BRK.B
1005893,C & T REGIONAL LANDFILL,46350.0,562212.0,TX,26.5774,-98.1854,2010,REPUBLIC SERVICES INC,100.0,REPUBLIC SERVICES INC,RSG
1003620,C&C LANDFILL,73797.5,562212.0,MI,42.356243,-85.009915,2010,REPUBLIC SERVICES INC,100.0,REPUBLIC SERVICES INC,RSG
1000419,C. R. Wing Cogeneration Plant,83190.292,221112.0,TX,32.2722,-101.4222,2010,BERKSHIRE HATHAWAY INC,91.14,BERKSHIRE HATHAWAY INC,BRK.B
1006201,CACTUS LANDFILL,59889.991675,562212.0,AZ,32.774244,-111.32412,2010,REPUBLIC SERVICES INC,100.0,REPUBLIC SERVICES INC,RSG
1006761,CALIFORNIA STEEL INDUSTRIES INC,167651.516,331111.0,CA,34.07737,-117.499688,2010,NUCOR CORP,51.0,NUCOR CORP,NUE
1003621,CANADIAN VALLEY LANDFILL,46212.5,562212.0,OK,35.347587,-96.803468,2010,REPUBLIC SERVICES INC,100.0,REPUBLIC SERVICES INC,RSG
1003102,CARBON LIMESTONE LANDFILL,168688.3,562212.0,OH,40.99719,-80.521,2010,REPUBLIC SERVICES INC,100.0,REPUBLIC SERVICES INC,RSG
1005150,CARLTON FORGE WORKS,26077.252,332112.0,CA,33.89479,-118.16474,2010,BERKSHIRE HATHAWAY INC,100.0,BERKSHIRE HATHAWAY INC,BRK.B
1002649,CARTER VALLEY LANDFILL,48060.0,562212.0,TN,36.540769,-82.783591,2010,REPUBLIC SERVICES INC,100.0,REPUBLIC SERVICES INC,RSG
1005990,CATERPILLAR INC.-MAPLETON,28741.592,331511.0,IL,40.559479,-89.747807,2010,CATERPILLAR INC,100.0,CATERPILLAR INC,CAT
1004470,CATERPILLAR INCORPORATED,26237.39,333618.0,IN,40.416761,-86.845658,2010,CATERPILLAR INC,100.0,CATERPILLAR INC,CAT
1006260,CEDAR RIDGE LANDFILL,31055.083257,562212.0,TN,35.451805,-86.843132,2010,WASTE MANAGEMENT INC,100.0,WASTE MANAGEMENT INC,WM
1005820,CENTERPOINT LANDFILL,41178.2326,562212.0,IN,39.476964,-86.992178,2010,WASTE MANAGEMENT INC,100.0,WASTE MANAGEMENT INC,WM
1007673,CENTRAL DISPOSAL SYSTEMS INC,67775.551754,562212.0,IA,43.38633,-93.57196,2010,WASTE MANAGEMENT INC,100.0,WASTE MANAGEMENT INC,WM
1006990,CENTRAL SANITARY LANDFILL,192157.3,562212.0,MI,43.33033,-85.509633,2010,REPUBLIC SERVICES INC,100.0,REPUBLIC SERVICES INC,RSG
1002301,"CF INDUSTRIES NITROGEN, LLC - DONALDSONVILLE NITROGEN COMPLEX",6449000.132,325311.0,LA,30.098563,-90.95599,2010,CF INDUSTRIES HOLDINGS INC,100.0,CF INDUSTRIES HOLDINGS INC,CF
1004183,"CF Industries Nitrogen, LLC - Yazoo City Facility",2615392.43,325311.0,MS,32.904368,-90.383137,2010,CF INDUSTRIES HOLDINGS INC,100.0,CF INDUSTRIES HOLDINGS INC,CF
1006005,"CF Industries Nitrogen, LLC-Port Neal Nitrogen Complex",1448598.104,325311.0,IA,42.32786,-96.36489,2010,CF INDUSTRIES HOLDINGS INC,100.0,CF INDUSTRIES HOLDINGS INC,CF
1002996,CGS Services Inc.,158890.64,562212.0,IN,39.69375,-85.721222,2010,WASTE MANAGEMENT INC,100.0,WASTE MANAGEMENT INC,WM
1003509,CHAIN OF ROCKS RECYCLING & DISPOSAL,8326.9522,562212.0,IL,38.753679,-90.158302,2010,WASTE MANAGEMENT INC,100.0,WASTE MANAGEMENT INC,WM
1000217,"CHAMBERS OF MISSISSIPPI INC, CLEARVIEW ENVIRONMENTAL CONTROL FACILITY LANDFILL",186802.889925,562212.0,MS,32.226346,-89.372269,2010,WASTE MANAGEMENT INC,100.0,WASTE MANAGEMENT INC,WM
1002859,CHANNELVIEW COMPLEX,1803917.216,325110.0,TX,29.833365,-95.11202,2010,LYONDELLBASELL INDUSTRIES INC,100.0,LYONDELLBASELL INDUSTRIES INC,LYB
1007813,CHASTANG SANITARY LANDFILL,38080.486065,562212.0,AL,31.0451,-88.0357,2010,WASTE MANAGEMENT INC,100.0,WASTE MANAGEMENT INC,WM
1007899,CHESSER ISLAND ROAD LANDFILL,246449.912338,562212.0,GA,30.708381,-82.064558,2010,WASTE MANAGEMENT INC,100.0,WASTE MANAGEMENT INC,WM
1006967,CHEVRON PHILLIPS - SWEENY COMPLEX,1227251.008,325110.0,TX,29.084209,-95.736462,2010,CHEVRON CORP,50.0,CHEVRON CORP,CVX
1002146,"CHEVRON PHILLIPS CHEMICAL COMPANY, LP PORT ARTHUR PLANT",619095.242,325110.0,TX,29.850396,-93.977222,2010,PHILLIPS 66,50.0,PHILLIPS 66,PSX
1003610,CHEVRON PRODS.CO. RICHMOND REFY,4523068.936,324110.0,CA,37.938779,-122.396453,2010,CHEVRON CORP,100.0,CHEVRON CORP,CVX
1006189,CHEVRON PRODUCTS CO - SALT LAKE REFINERY,429829.006,324110.0,UT,40.8249,-111.9238,2010,CHEVRON CORP,100.0,CHEVRON CORP,CVX
1007978,"CHEVRON PRODUCTS, EL SEGUNDO REFINERY",3498913.596,324110.0,CA,33.908126,-118.41074,2010,CHEVRON CORP,100.0,CHEVRON CORP,CVX
1007669,CHICOPEE SANITARY LANDFILL,44456.061117,562212.0,MA,42.16711,-72.54246,2010,WASTE MANAGEMENT INC,100.0,WASTE MANAGEMENT INC,WM
1002353,CHITWOOD GAS PLANT,28871.656,211112.0,OK,34.8563,-97.8277,2010,PHILLIPS 66,86.8,PHILLIPS 66,PSX
1008012,CID RECYCLING & DISPOSAL FACILITY,40744.751361,562212.0,IL,41.6446,-87.574767,2010,WASTE MANAGEMENT INC,100.0,WASTE MANAGEMENT INC,WM
1002175,"CIG Station 5440 Mocane, OK",34513.42,486210.0,OK,36.894684,-100.395611,2010,KINDER MORGAN INC,100.0,KINDER MORGAN INC,KMI
1001994,"CIG Station 5560 Kit Carson, CO",44714.832,486210.0,CO,38.413345,-102.759485,2010,KINDER MORGAN INC,100.0,KINDER MORGAN INC,KMI
1002015,"CIG Station 5690 Muddy Gap, WY",26442.0,486210.0,WY,42.3758,-107.4265,2010,KINDER MORGAN INC,100.0,KINDER MORGAN INC,KMI
1002127,"CIG Station 5850 Cheyenne, CO",140936.168,486210.0,CO,40.908951,-104.892167,2010,KINDER MORGAN INC,100.0,KINDER MORGAN INC,KMI
1002061,"CIG Station 5950 Watkins, CO",37461.508,486210.0,CO,39.745283,-104.698908,2010,KINDER MORGAN INC,100.0,KINDER MORGAN INC,KMI
1005594,CITY OF ALBEMARLE LANDFILL,36605.25,562212.0,NC,35.35115,-80.19809,2010,CITY OF ALBEMARLE NORTH CAROLINA,100.0,CITY OF ALBEMARLE NORTH CAROLINA,ALB
1007932,CITY SAND & LANDFILL INC,32094.878075,562212.0,MI,42.110086,-83.494311,2010,WASTE MANAGEMENT INC,100.0,WASTE MANAGEMENT INC,WM
1002242,CLINTON COUNTY LANDFILL,74204.868975,562212.0,IN,40.325072,-86.558826,2010,REPUBLIC SERVICES INC,100.0,REPUBLIC SERVICES INC,RSG
1003646,COASTAL PLAINS RECYCLING AND DISPOSAL FACILITY,181219.11925,562212.0,TX,29.40936,-95.19557,2010,WASTE MANAGEMENT INC,100.0,WASTE MANAGEMENT INC,WM
1007054,COFFIN BUTTE LANDFILL,53110.0,562212.0,OR,44.6989,-123.2335,2010,REPUBLIC SERVICES INC,100.0,REPUBLIC SERVICES INC,RSG
1006348,COLES COUNTY LANDFILL,17915.0,562212.0,IL,39.495524,-88.288734,2010,REPUBLIC SERVICES INC,100.0,REPUBLIC SERVICES INC,RSG
1002510,COLONIAL LANDFILL,30247.5,562212.0,LA,30.149365,-90.872875,2010,REPUBLIC SERVICES INC,100.0,REPUBLIC SERVICES INC,RSG
1004691,COLTON SANITARY LANDFILL,77595.75,562212.0,CA,34.045505,-117.336573,2010,SAN BERNARDINO COUNTY SOLID WASTE MANAGEMENT DIV,100.0,SAN BERNARDINO COUNTY SOLID WASTE MANAGEMENT DIV,WM
1004162,COMM REFUSE SVC INC/CUMBERLAND CNTY LDFL,103404.25,562212.0,PA,40.13436,-77.49971,2010,WASTE MANAGEMENT INC,100.0,WASTE MANAGEMENT INC,WM
1000781,CON ED-EAST 60TH STREET STEAM PLANT,186232.748,221330.0,NY,40.7586,-73.9592,2010,CONSOLIDATED EDISON INC,100.0,CONSOLIDATED EDISON INC,ED
1000607,CONAGRA FOODS LAMB WESTON,37596.31,311411.0,WA,46.651389,-118.871944,2010,LAMB WESTON HOLDINGS INC,100.0,LAMB WESTON HOLDINGS INC,LW
1000611,CONAGRA FOODS LAMB WESTON PASCO,47224.272,311411.0,WA,46.288137,-119.115336,2010,LAMB WESTON HOLDINGS INC,100.0,LAMB WESTON HOLDINGS INC,LW
1000614,CONAGRA FOODS LAMB WESTON RICHLAND,32114.928,311411.0,WA,46.309448,-119.29756,2010,LAMB WESTON HOLDINGS INC,100.0,LAMB WESTON HOLDINGS INC,LW
1002556,CONESTOGA LANDFILL,240919.698,562212.0,PA,40.123384,-75.895918,2010,REPUBLIC SERVICES INC,100.0,REPUBLIC SERVICES INC,RSG
1006289,CONGRESS DEVELOPMENT CO LANDFILL,16269.8,562212.0,IL,41.87027,-87.88811,2010,REPUBLIC SERVICES INC,100.0,REPUBLIC SERVICES INC,RSG
1007963,COPPER MOUNTAIN LANDFILL,105776.333675,562212.0,AZ,32.649535,-114.039174,2010,REPUBLIC SERVICES INC,100.0,REPUBLIC SERVICES INC,RSG
1002462,CORNING DIESEL MANUFACTURING FACILITY,86370.324,336399.0,NY,42.11055,-77.1558,2010,CORNING INC,100.0,CORNING INC,GLW
1006643,CORNING INCORPORATED - BLACKSBURG PLANT,29017.25,327999.0,VA,37.17298,-80.42048,2010,CORNING INC,100.0,CORNING INC,GLW
1007579,COSHOCTON LANDFILL INC *,42666.2681,562212.0,OH,40.223,-81.826,2010,WASTE MANAGEMENT INC,100.0,WASTE MANAGEMENT INC,WM
1003216,COTTONWOOD HILLS LANDFILL,59969.542612,562212.0,IL,38.263429,-89.783418,2010,WASTE MANAGEMENT INC,100.0,WASTE MANAGEMENT INC,WM
1007992,COUNTRYSIDE LANDFILL,134549.910273,562212.0,IL,42.321899,-88.024902,2010,WASTE MANAGEMENT INC,100.0,WASTE MANAGEMENT INC,WM
1007975,COUNTY ENVIRONMENTAL LANDFILL OF CLARION,19093.6,562212.0,PA,41.39047,-79.28512,2010,REPUBLIC SERVICES INC,100.0,REPUBLIC SERVICES INC,RSG
1002555,COUNTY ENVIRONMENTAL Landfill OF WYANDOT,43684.5,562212.0,OH,40.9107,-83.3288,2010,REPUBLIC SERVICES INC,100.0,REPUBLIC SERVICES INC,RSG
1007024,COUNTY LINE LANDFILL,180177.7,562212.0,IN,41.166962,-86.2325,2010,REPUBLIC SERVICES INC,100.0,REPUBLIC SERVICES INC,RSG
1008003,COUNTYWIDE RECYCLING & DISPOSAL FACILITY,91952.6,562212.0,OH,40.666666,-81.423749,2010,REPUBLIC SERVICES INC,100.0,REPUBLIC SERVICES INC,RSG
1007631,COURTNEY RIDGE LANDFILL,226446.4,562212.0,MO,39.14345,-94.38995,2010,REPUBLIC SERVICES INC,100.0,REPUBLIC SERVICES INC,RSG
1005420,COVE POINT LNG FACILITY,173544.996,486210.0,MD,38.38407,-76.41233,2010,DOMINION ENERGY INC,100.0,DOMINION ENERGY INC,D
1007646,CROSSROADS LANDFILL,41079.103751,562212.0,ME,44.712556,-69.847255,2010,WASTE MANAGEMENT INC,100.0,WASTE MANAGEMENT INC,WM
1002644,CSC DISPOSAL AND LANDFILL,150956.423,562212.0,TX,32.223334,-96.787501,2010,REPUBLIC SERVICES INC,100.0,REPUBLIC SERVICES INC,RSG
1001627,CUMBERLAND COUNTY ANN STREET LANDFILL,45332.75,562212.0,NC,35.061773,-78.872083,2010,CUMBERLAND COUNTY SOLID WASTE MANAGEMENT,100.0,CUMBERLAND COUNTY SOLID WASTE MANAGEMENT,WM
1007902,CUYAHOGA REGIONAL SANITARY LANDFILL,20500.0,562212.0,OH,41.37403,-81.47463,2010,WASTE MANAGEMENT INC,100.0,WASTE MANAGEMENT INC,WM
1007794,"CWMI, KHF (MSW LANDFILL B-19)",52957.579794,562212.0,CA,35.95943,-120.00865,2010,WASTE MANAGEMENT INC,100.0,WASTE MANAGEMENT INC,WM
1005508,Caesars Entertainment Consolidated Properties Source ID 257,52208.504,721120.0,NV,36.11736,-115.17368,2010,CAESARS ENTERTAINMENT CORP,100.0,CAESARS ENTERTAINMENT CORP,CZR
1006724,Caja del Rio Landfill,7957.55,562212.0,NM,35.677746,-106.087855,2010,SANTA FE SOLID WASTE MANAGEMENT AGENCY,100.0,SANTA FE SOLID WASTE MANAGEMENT AGENCY,WM
1001342,Calcasieu Plant,155452.672,221112.0,LA,30.1603,-93.3458,2010,ENTERGY CORP,100.0,ENTERGY CORP,ETR
1000812,"Calhoun Power Company, LLC",165805.67,221112.0,AL,33.5883,-85.9731,2010,THE SOUTHERN CO,100.0,THE SOUTHERN CO,SO
1006509,Cane Run,3260907.568,221112.0,KY,38.1828,-85.8894,2010,PPL CORP,100.0,PPL CORP,PPL
1007650,Cape Canaveral,206749.22,221112.0,FL,28.4694,-80.7642,2010,NEXTERA ENERGY INC,100.0,NEXTERA ENERGY INC,NEE
1000785,Cape Fear Steam Electric Plant,1768720.492,221112.0,NC,35.595,-79.0492,2010,DUKE ENERGY CORP,100.0,DUKE ENERGY CORP,DUK
1007521,Carleton Farms Landfill,222942.5,562212.0,MI,42.093,-83.428,2010,REPUBLIC SERVICES INC,100.0,REPUBLIC SERVICES INC,RSG
1002575,Caterpillar Inc. - East Peoria Plant,88786.41,333120.0,IL,40.67649,-89.58879,2010,CATERPILLAR INC,100.0,CATERPILLAR INC,CAT
1007913,"Catlettsburg Refining, LLC",2245072.974,324110.0,KY,38.375,-82.6042,2010,MARATHON PETROLEUM CORP,100.0,MARATHON PETROLEUM CORP,MPC
1001540,Cayuga,5872007.06,221112.0,IN,39.9239,-87.4272,2010,DUKE ENERGY CORP,100.0,DUKE ENERGY CORP,DUK
1000929,Cedar Bayou,678859.786,221112.0,TX,29.7483,-94.9272,2010,NRG ENERGY INC,100.0,NRG ENERGY INC,NRG
1000547,Cedar Bayou 4,870391.974,221112.0,TX,29.752,-94.923,2010,NRG ENERGY INC,50.0,NRG ENERGY INC,NRG
1004750,Cedar Trails Class III,57734.067675,562212.0,FL,27.89808,-81.884525,2010,REPUBLIC SERVICES INC,100.0,REPUBLIC SERVICES INC,RSG
1008004,Celina Landfill,64324.623075,562212.0,OH,40.45454,-84.56558,2010,REPUBLIC SERVICES INC,100.0,REPUBLIC SERVICES INC,RSG
1007707,Central Landfill,135076.557319,562212.0,MS,30.7097,-89.59375,2010,WASTE MANAGEMENT INC,100.0,WASTE MANAGEMENT INC,WM
1001396,Ceredo Generating Station,32384.38,221112.0,WV,38.3681,-82.5339,2010,AMERICAN ELECTRIC POWER CO INC,100.0,AMERICAN ELECTRIC POWER CO INC,AEP
1003099,Charlotte Motor Speedway Landfill V,295380.0,562212.0,NC,35.345247,-80.682062,2010,REPUBLIC SERVICES INC,100.0,REPUBLIC SERVICES INC,RSG
1002509,Charter Waste Landfill,96654.9554,562212.0,TX,31.770001,-102.5,2010,REPUBLIC SERVICES INC,100.0,REPUBLIC SERVICES INC,RSG
1007015,Chateau Fresno Landfill,3337.5,562212.0,CA,36.68793,-119.94582,2010,REPUBLIC SERVICES INC,100.0,REPUBLIC SERVICES INC,RSG
1000144,Chehalis Generation Facility,532676.976,221112.0,WA,46.6226,-122.9145,2010,BERKSHIRE HATHAWAY INC,100.0,BERKSHIRE HATHAWAY INC,BRK.B
1007207,Cherokee,4000503.026,221112.0,CO,39.8078,-104.9648,2010,XCEL ENERGY INC,100.0,XCEL ENERGY INC,XEL
1002480,Cherokee Run Landfill,88986.7,562212.0,OH,40.413065,-83.724428,2010,REPUBLIC SERVICES INC,100.0,REPUBLIC SERVICES INC,RSG
1000964,Chesterfield Power Station,7197188.886,221112.0,VA,37.3822,-77.3833,2010,DOMINION ENERGY INC,100.0,DOMINION ENERGY INC,D
1000696,Chevron Cogenerating Station,928151.028,221112.0,MS,30.34,-88.492,2010,THE SOUTHERN CO,100.0,THE SOUTHERN CO,SO
1007694,Chevron Oronite Oak Point,132410.052,325199.0,LA,29.80825,-90.01,2010,CHEVRON CORP,100.0,CHEVRON CORP,CVX
1003286,Chevron Pascagoula Refinery,3364191.026,324110.0,MS,30.343733,-88.4938,2010,CHEVRON CORP,100.0,CHEVRON CORP,CVX
1003991,Chevron Phillips Chemical Company LP Cedar Bayou Plant,822769.74,325110.0,TX,29.826,-94.921917,2010,PHILLIPS 66,50.0,PHILLIPS 66,PSX
1000171,Choctaw County Gen,160593.704,221112.0,MS,33.2881,-89.4201,2010,ENTERGY CORP,100.0,ENTERGY CORP,ETR
1001421,Cholla,7535203.816,221112.0,AZ,34.9394,-110.3033,2010,PINNACLE WEST CAPITAL CORP,100.0,PINNACLE WEST CAPITAL CORP,PNW
1000150,Chuck Lenzie Generating Station,2830922.70006,221112.0,NV,36.3853,-114.9228,2010,BERKSHIRE HATHAWAY INC,100.0,BERKSHIRE HATHAWAY INC,BRK.B
1004976,Citizens Disposal Landfill,167343.0,562212.0,MI,42.914749,-83.722404,2010,REPUBLIC SERVICES INC,100.0,REPUBLIC SERVICES INC,RSG
1000726,Clark,270214.484,221112.0,NV,36.0875,-115.0507,2010,BERKSHIRE HATHAWAY INC,100.0,BERKSHIRE HATHAWAY INC,BRK.B
1000832,Cliffside,2278638.1,221112.0,NC,35.22,-81.7594,2010,DUKE ENERGY CORP,100.0,DUKE ENERGY CORP,DUK
1001531,Clifty Creek,7236895.424,221112.0,IN,38.7383,-85.4192,2010,AMERICAN ELECTRIC POWER CO INC,100.0,AMERICAN ELECTRIC POWER CO INC,AEP
1007359,Clinch River,1530103.894,221112.0,VA,36.9333,-82.1997,2010,AMERICAN ELECTRIC POWER CO INC,100.0,AMERICAN ELECTRIC POWER CO INC,AEP
1001093,Clover Power Station,6246716.782,221112.0,VA,36.8692,-78.7046,2010,OLD DOMINION ELECTRIC COOPERATIVE,50.0,OLD DOMINION ELECTRIC COOPERATIVE,ODFL
1003035,Coastal Regional Solid Waste Management Authority,104018.5,562212.0,NC,34.943667,-76.948346,2010,THE COASTAL REGIONAL SOLID WASTE MANAGEMENT AUTHORITY,100.0,THE COASTAL REGIONAL SOLID WASTE MANAGEMENT AUTHORITY,WM
1001038,Coleto Creek,4160396.51,221112.0,TX,28.7128,-97.2142,2010,Vistra Corp,100.0,VISTRA CORP,VST
1003568,Colorado Energy Nations Company LLC (Golden Facility),602290.022,221112.0,CO,39.760555,-105.215,2010,MOLSON COORS BEVERAGE CO,100.0,MOLSON COORS BEVERAGE CO,TAP
1008019,Colorado Springs Landfill,192127.944,562212.0,CO,38.847491,-104.572053,2010,WASTE MANAGEMENT INC,100.0,WASTE MANAGEMENT INC,WM
1001186,Columbia,7580548.302,221112.0,WI,43.4864,-89.4203,2010,ALLIANT ENERGY CORP,53.5,ALLIANT ENERGY CORP,LNT
1006999,Columbia Energy Center (SC),186920.94,221112.0,SC,33.8692,-81.0183,2010,DOMINION ENERGY INC,100.0,DOMINION ENERGY INC,D
1001191,Comanche (8059),452345.824,221112.0,OK,34.5431,-98.3244,2010,AMERICAN ELECTRIC POWER CO INC,100.0,AMERICAN ELECTRIC POWER CO INC,AEP
1006445,ConAgra Foods Inc.,69893.936,311421.0,CA,37.76078,-120.84308,2010,CONAGRA BRANDS INC,100.0,CONAGRA BRANDS INC,CAG
1006896,ConAgra Foods Inc.,42746.388,311422.0,PA,41.01231,-76.85789,2010,CONAGRA BRANDS INC,100.0,CONAGRA BRANDS INC,CAG
1000613,ConAgra Foods Lamb Weston Quincy,38037.206,311411.0,WA,47.234413,-119.869914,2010,LAMB WESTON HOLDINGS INC,100.0,LAMB WESTON HOLDINGS INC,LW
1000615,ConAgra Foods Lamb Weston Twin Falls,51774.806,311411.0,ID,42.5524,-114.4827,2010,LAMB WESTON HOLDINGS INC,100.0,LAMB WESTON HOLDINGS INC,LW
1001086,Concord,35693.854,221112.0,WI,43.1669,-88.69,2010,WEC Energy Group Inc,100.0,WEC ENERGY GROUP INC,WEC
1005789,ConocoPhillips Alaska Inc - KRU CPF1,541061.402,211111.0,AK,70.3233,-149.605,2010,CONOCOPHILLIPS,92.52,CONOCOPHILLIPS,COP
1004422,ConocoPhillips Alaska Inc - KRU CPF2,355125.11,211111.0,AK,70.2883,-149.8858,2010,CHEVRON CORP,4.95,CHEVRON CORP,CVX
1004998,ConocoPhillips Alaska Inc - KRU CPF3,272899.68,211111.0,AK,70.3981,-149.8158,2010,CHEVRON CORP,4.95,CHEVRON CORP,CVX
1005001,ConocoPhillips Alaska Inc - KRU STP,73877.37,211111.0,AK,70.5103,-149.8664,2010,CONOCOPHILLIPS,92.52,CONOCOPHILLIPS,COP
1007575,Conroe 6 Landfill,6296.75,562212.0,TX,30.31203,-95.425376,2010,WASTE MANAGEMENT INC,100.0,WASTE MANAGEMENT INC,WM
1002623,"Copano Energy Houston Central Plant, TX",192882.68,211112.0,TX,29.6331,-96.719424,2010,KINDER MORGAN INC,100.0,KINDER MORGAN INC,KMI
1001092,Cope Station,2349845.284,221112.0,SC,33.3642,-81.03,2010,DOMINION ENERGY INC,100.0,DOMINION ENERGY INC,D
1003439,Covel Gardens Recycling and Disposal Facility,383255.653975,562212.0,TX,29.34358,-98.64637,2010,WASTE MANAGEMENT INC,100.0,WASTE MANAGEMENT INC,WM
1001119,Coyote Springs,1254409.1,221112.0,OR,45.8486,-119.6744,2010,PORTLAND GENERAL ELECTRIC CO,50.0,PORTLAND GENERAL ELECTRIC CO,GE
1007732,Craven County Wood Energy,458146.97,221119.0,NC,35.1285,-77.17,2010,CMS ENERGY CORP,50.0,CMS ENERGY CORP,CMS
1003443,"Crayne Station - Dominion Transmission, Inc",32648.576,486210.0,PA,39.91859,-80.1227,2010,BERKSHIRE HATHAWAY INC,100.0,BERKSHIRE HATHAWAY INC,BRK.B
1006702,Crist Electric Generating Plant,5882347.16,221112.0,FL,30.5661,-87.2289,2010,NEXTERA ENERGY INC,100.0,NEXTERA ENERGY INC,NEE
1001487,Crystal River Power Plant,12157601.678,221112.0,FL,28.9594,-82.7003,2010,DUKE ENERGY CORP,100.0,DUKE ENERGY CORP,DUK
1000755,Cunningham,576645.112,221112.0,NM,32.7131,-103.3533,2010,XCEL ENERGY INC,100.0,XCEL ENERGY INC,XEL
1000436,Currant Creek Power Project,928486.364,221112.0,UT,39.8223,-111.894,2010,BERKSHIRE HATHAWAY INC,100.0,BERKSHIRE HATHAWAY INC,BRK.B
1003583,DAKOTA MUNICIPAL SOLID WASTE LANDFILL,84688.098626,562212.0,ND,46.258482,-97.69506,2010,WASTE MANAGEMENT INC,100.0,WASTE MANAGEMENT INC,WM
1002961,DAL TILE INTERNATIONAL,28665.092,327122.0,TX,31.957737,-106.351547,2010,MOHAWK INDUSTRIES INC,100.0,MOHAWK INDUSTRIES INC,MHK
1006243,DAL-ITALIA,64882.26,327122.0,OK,35.70651,-95.38611,2010,MOHAWK INDUSTRIES INC,100.0,MOHAWK INDUSTRIES INC,MHK
1002863,DALTON WHITFIELD REGIONAL SW MANAGEMENT,142850.0,562212.0,GA,34.65119,-84.95693,2010,DALTON-WHITFIELD REGIONAL SOLID WASTE MANAGEMENT,100.0,DALTON-WHITFIELD REGIONAL SOLID WASTE MANAGEMENT,WM
1008921,DCP MIDSTREAM LP/KINGFISHER NATURAL G,37037.249,211112.0,OK,35.7892,-97.7445,2010,PHILLIPS 66,86.8,PHILLIPS 66,PSX
1006905,DCP MIDSTREAM LP/OKARCHE GAS PLT,65035.518,211112.0,OK,35.73775,-98.09044,2010,PHILLIPS 66,86.8,PHILLIPS 66,PSX
1007878,DEER TRACK PARK LANDFILL,96238.752944,562212.0,WI,43.091345,-88.744231,2010,WASTE MANAGEMENT INC,100.0,WASTE MANAGEMENT INC,WM
1004600,DEERCROFT RECYCLING AND DISPOSAL FACILITY (RDF),45406.575675,562212.0,IN,41.65144,-86.90338,2010,WASTE MANAGEMENT INC,100.0,WASTE MANAGEMENT INC,WM
1004065,"DEFFENBAUGH INDUSTRIES, INC.",967990.138,562212.0,KS,39.036314,-94.794083,2010,WASTE MANAGEMENT INC,100.0,WASTE MANAGEMENT INC,WM
1007724,DEKALB COUNTY LANDFILL,104299.887107,562212.0,IL,41.897846,-88.685484,2010,WASTE MANAGEMENT INC,100.0,WASTE MANAGEMENT INC,WM
1004696,DELTA SOLID WASTE MANAGEMENT AUTHORITY,37575.35,562212.0,MI,45.764722,-87.131,2010,DELTA SOLID WASTE MANAGEMENT AUTHORITY,100.0,DELTA SOLID WASTE MANAGEMENT AUTHORITY,WM
1007709,DENVER ARAPAHOE DISPOSAL SITE-A WASTE MANAGEMENT COMPANY,71624.786499,562212.0,CO,39.64582,-104.71626,2010,WASTE MANAGEMENT INC,100.0,WASTE MANAGEMENT INC,WM
1005858,DENVER UNIT CO 2 RECOVERY PLANT,119127.46,211111.0,TX,32.998333,-102.813611,2010,DEVON ENERGY CORP,1.0,DEVON ENERGY CORP,DVN
1005834,DFW RECYCLING AND DISPOSAL FACILITY,214954.333486,562212.0,TX,33.006709,-96.996093,2010,WASTE MANAGEMENT INC,100.0,WASTE MANAGEMENT INC,WM
1008310,DIAMOND SHAMROCK REFINING VALERO,825983.301,324110.0,TX,28.456667,-98.190277,2010,VALERO ENERGY CORP,100.0,VALERO ENERGY CORP,VLO
1007690,DICKINSON LANDFILL INC,88457.569007,562212.0,IA,43.371407,-95.076991,2010,WASTE MANAGEMENT INC,100.0,WASTE MANAGEMENT INC,WM
1003544,"DISPOSAL SERVICE, INC. SANITARY LANDFILL",150962.186099,562212.0,WV,38.40639,-82.02028,2010,WASTE MANAGEMENT INC,100.0,WASTE MANAGEMENT INC,WM
1003769,DISTRIGAS OF MASSACHUSETTS LLC,126466.372,221210.0,MA,42.393109,-71.064636,2010,Constellation Energy Corp,100.0,CONSTELLATION ENERGY CORP,CEG
1003458,DOMINION EAST OHIO - ROBINSON STA,29407.33,221210.0,OH,40.86417,-81.465,2010,DOMINION ENERGY INC,100.0,DOMINION ENERGY INC,D
1007835,DOUGLAS COUNTY RECYCLING LANDFILL,90754.6947,562212.0,NE,41.38508,-96.25341,2010,WASTE MANAGEMENT INC,100.0,WASTE MANAGEMENT INC,WM
1002529,DOW AGROSCIENCES HARBOR BEACH,58611.88,325320.0,MI,43.846111,-82.649722,2010,CORTEVA INC,100.0,CORTEVA INC,CTVA
1007805,DOW CHEMICAL COMPANY,34232.22,325199.0,CA,38.023129,-121.855352,2010,DOW INC,0.0,DOW INC,DOW
1002548,DOW CORNING,136846.384,325199.0,KY,38.7074,-85.1048,2010,DOW INC,100.0,DOW INC,DOW
1002040,DOW TEXAS OPERATIONS FREEPORT,5786352.172,325181.0,TX,28.993619,-95.397713,2010,DOW INC,100.0,DOW INC,DOW
1003694,DOZIT COMPANY LANDFILL,80275.039225,562212.0,KY,37.742222,-87.980556,2010,REPUBLIC SERVICES INC,100.0,REPUBLIC SERVICES INC,RSG
1000282,"DTE Calvert City, LLC",193082.58,221330.0,KY,37.0467,-88.3506,2010,DTE ENERGY CO,100.0,DTE ENERGY CO,DTE
1000173,DTE East China,35335.32,221112.0,MI,42.774,-82.4818,2010,DTE ENERGY CO,100.0,DTE ENERGY CO,DTE
1001715,DU PONT PONTCHARTRAIN WORKS,85512.728,325110.0,LA,30.056742,-90.52429,2010,DUPONT DE NEMOURS INC,100.0,DUPONT DE NEMOURS INC,DD
1001720,DUPONT CIRCLEVILLE PLANT,26115.152,325211.0,OH,39.55762,-82.96377,2010,DUPONT DE NEMOURS INC,100.0,DUPONT DE NEMOURS INC,DD
1002712,DUPONT EXPERIMENTAL STATION,76849.308,541712.0,DE,39.774444,-75.572222,2010,DUPONT DE NEMOURS INC,100.0,DUPONT DE NEMOURS INC,DD
1003382,DUPONT SABINE RIVER WORKS,976336.268,325199.0,TX,30.054796,-93.753863,2010,DOW INC,100.0,DOW INC,DOW
1003976,DUPONT TEIJIN FILMS,39975.08,326113.0,VA,37.350627,-77.291096,2010,DUPONT TEIJIN FILMS,100.0,DUPONT TEIJIN FILMS,DD
1001147,Dahlberg (Jackson County),205527.122,221112.0,GA,34.0386,-83.3972,2010,THE SOUTHERN CO,100.0,THE SOUTHERN CO,SO
1005106,Dal-Tile Sunnyvale Mfg,56031.838,327122.0,TX,32.766944,-96.562777,2010,MOHAWK INDUSTRIES INC,100.0,MOHAWK INDUSTRIES INC,MHK
1007374,Dan E Karn,4450155.42,221112.0,MI,43.6425,-83.8431,2010,CMS ENERGY CORP,100.0,CMS ENERGY CORP,CMS
1000833,Dan River,639963.836,221112.0,NC,36.4862,-79.7208,2010,DUKE ENERGY CORP,100.0,DUKE ENERGY CORP,DUK
1007370,Daniel Electric Generating Plant,7689065.462,221112.0,MS,30.5335,-88.5574,2010,THE SOUTHERN CO,75.0,THE SOUTHERN CO,SO
1000303,Darbytown Combustion Turbine,133397.226,221112.0,VA,37.4978,-77.368,2010,DOMINION ENERGY INC,100.0,DOMINION ENERGY INC,D
1000990,Dave Johnston,5478910.11,221112.0,WY,42.8378,-105.7769,2010,BERKSHIRE HATHAWAY INC,100.0,BERKSHIRE HATHAWAY INC,BRK.B
1001295,De Pere Energy Center,20038.776,221112.0,WI,44.4489,-88.0731,2010,WEC Energy Group Inc,100.0,WEC ENERGY GROUP INC,WEC
1001014,DeBary Power Plant,226437.32,221112.0,FL,28.9047,-81.3319,2010,DUKE ENERGY CORP,100.0,DUKE ENERGY CORP,DUK
1006695,Dearborn Industrial Generation,2476339.624,221119.0,MI,42.3026,-83.154,2010,CMS ENERGY CORP,100.0,CMS ENERGY CORP,CMS
1007501,Decordova,32612.09,221112.0,TX,32.4033,-97.6986,2010,Vistra Corp,100.0,VISTRA CORP,VST
1001755,Defiance Casting Operations (0320010001),159801.52,331511.0,OH,41.28244,-84.292089,2010,GENERAL MOTORS CO,100.0,GENERAL MOTORS CO,GM
1000674,Delray,17451.536,221112.0,MI,42.2947,-83.1019,2010,DTE ENERGY CO,100.0,DTE ENERGY CO,DTE
1005211,Delta Air Lines Inc.- Atlanta Operations,52304.14,481111.0,GA,33.656807,-84.423124,2010,DELTA AIR LINES INC,100.0,DELTA AIR LINES INC,DAL
1007700,Denver Regional North Landfill,3675.0,562212.0,CO,40.024535,-105.027726,2010,REPUBLIC SERVICES INC,100.0,REPUBLIC SERVICES INC,RSG
1001306,Desert Star Energy Center,1197060.864,221112.0,NV,35.7867,-114.9928,2010,SEMPRA ENERGY,100.0,SEMPRA ENERGY,SRE
1007936,"Diamond Shamrock Refining Company, L.P.",1438269.22,324110.0,TX,35.951944,-101.873889,2010,VALERO ENERGY CORP,100.0,VALERO ENERGY CORP,VLO
1002166,Dow Corning Corporation - Midland Site,117091.0,325998.0,MI,43.58891,-84.20784,2010,DOW INC,100.0,DOW INC,DOW
1000265,"Dynegy Energy Fayette, II LLC",855508.88,221112.0,PA,39.8592,-79.9182,2010,Vistra Corp,100.0,VISTRA CORP,VST
1000168,"Dynegy Energy Washington II, LLC",708685.324,221112.0,OH,39.5798,-81.6571,2010,Vistra Corp,100.0,VISTRA CORP,VST
1000153,"Dynegy Hanging Rock, II LLC",1419939.736,221112.0,OH,38.5731,-82.7833,2010,Vistra Corp,100.0,VISTRA CORP,VST
1001330,Dynegy Kendall Energy Facility,694179.18,221112.0,IL,41.4797,-88.2581,2010,Vistra Corp,100.0,VISTRA CORP,VST
1001175,E B Harris Generating Plant,1578803.352,221112.0,AL,32.3814,-86.5736,2010,THE SOUTHERN CO,100.0,THE SOUTHERN CO,SO
1001414,E C Gaston,8993000.57,221112.0,AL,33.2442,-86.4567,2010,THE SOUTHERN CO,100.0,THE SOUTHERN CO,SO
1007271,E R SQUIBB & SONS LLC,38296.052,325412.0,NJ,40.321556,-74.706222,2010,BRISTOL-MYERS SQUIBB CO,100.0,BRISTOL-MYERS SQUIBB CO,BMY
1001579,E.W. Brown,3214782.3,221112.0,KY,37.7889,-84.7139,2010,PPL CORP,100.0,PPL CORP,PPL
1007588,EARTHMOVERS LANDFILL,133357.702777,562212.0,IN,41.691773,-86.00137,2010,WASTE MANAGEMENT INC,100.0,WASTE MANAGEMENT INC,WM
1003101,EAST CAROLINA REGIONAL LANDFILL,199772.25,562212.0,NC,36.11558,-77.07097,2010,REPUBLIC SERVICES INC,100.0,REPUBLIC SERVICES INC,RSG
1006407,EAST TEXAS GAS PLANT,201976.267,211112.0,TX,32.187876,-94.261875,2010,PHILLIPS 66,86.8,PHILLIPS 66,PSX
1002468,ECD LANDFILL,45036.1,562212.0,TX,32.394059,-96.653222,2010,REPUBLIC SERVICES INC,100.0,REPUBLIC SERVICES INC,RSG
1007944,ECDC ENVIRONMENTAL,114392.5,562212.0,UT,39.540246,-110.43179,2010,REPUBLIC SERVICES INC,100.0,REPUBLIC SERVICES INC,RSG
1007392,EES COKE BATTERY,647191.6,324199.0,MI,42.26956,-83.13643,2010,DTE ENERGY CO,100.0,DTE ENERGY CO,DTE
1001253,"EFS Parlin Holdings, LLC",37081.824,221112.0,NJ,40.4586,-74.3327,2010,GENERAL ELECTRIC CO,100.0,GENERAL ELECTRIC CO,GE
1007693,EL SOBRANTE LANDFILL,128475.184,562212.0,CA,33.781165,-117.472555,2010,WASTE MANAGEMENT INC,100.0,WASTE MANAGEMENT INC,WM
1006232,ELBERTA COMPRESSOR STATION,47033.824,486210.0,UT,39.4536,-111.9861,2010,BERKSHIRE HATHAWAY INC,100.0,BERKSHIRE HATHAWAY INC,BRK.B
1002491,ELDA RDF,54011.4499,562212.0,OH,39.18631,-84.49986,2010,WASTE MANAGEMENT INC,100.0,WASTE MANAGEMENT INC,WM
1007672,"ELK RIVER SANITARY LANDFILL, INC.",107713.986543,562212.0,MN,45.383944,-93.56825,2010,WASTE MANAGEMENT INC,100.0,WASTE MANAGEMENT INC,WM
1007589,ENVIROFIL OF ILLNOIS INC,18555.36105,562212.0,IL,40.484296,-90.637965,2010,WASTE MANAGEMENT INC,100.0,WASTE MANAGEMENT INC,WM
1007701,ENVIRONTECH LANDFILL,22633.996,562212.0,IL,41.371232,-88.406767,2010,REPUBLIC SERVICES INC,100.0,REPUBLIC SERVICES INC,RSG
1002060,"EPNG Station 1775 Mojave Topock, AZ",26214.852,486210.0,AZ,34.7175,-114.485,2010,KINDER MORGAN INC,100.0,KINDER MORGAN INC,KMI
1002116,EPNG Station 6210 Bondad,56519.386,486210.0,CO,37.096339,-107.769381,2010,KINDER MORGAN INC,100.0,KINDER MORGAN INC,KMI
1001981,"EPNG Station 6312 Cornudas, TX",108630.94,486210.0,TX,31.7033,-105.4564,2010,KINDER MORGAN INC,100.0,KINDER MORGAN INC,KMI
1001988,"EPNG Station 6335 Hueco, TX",35581.116,486210.0,TX,31.6839,-105.94896,2010,KINDER MORGAN INC,100.0,KINDER MORGAN INC,KMI
1001990,"EPNG Station 6339 Keystone, TX",50588.76,486210.0,TX,31.9499,-103.1085,2010,KINDER MORGAN INC,100.0,KINDER MORGAN INC,KMI
1001982,"EPNG Station 6521 Eunice A, NM",46085.776,486210.0,NM,32.670261,-103.404945,2010,KINDER MORGAN INC,100.0,KINDER MORGAN INC,KMI
1002118,"EPNG Station 6560 Pecos River, NM",53357.148,486210.0,NM,32.063688,-104.01868,2010,KINDER MORGAN INC,100.0,KINDER MORGAN INC,KMI
1001986,"EPNG Station 6735 Hackberry, AZ",58699.828,486210.0,AZ,35.1708,-113.7027,2010,KINDER MORGAN INC,100.0,KINDER MORGAN INC,KMI
1001997,"EPNG Station 6741 Alamo Lake, AZ",33743.872,486210.0,AZ,34.07,-113.6103,2010,KINDER MORGAN INC,100.0,KINDER MORGAN INC,KMI
1001996,"EPNG Station 6750 Leupp, AZ",72570.576,486210.0,AZ,35.3048,-111.0939,2010,KINDER MORGAN INC,100.0,KINDER MORGAN INC,KMI
1002117,"EPNG Station 6755 Navajo, AZ",58024.732,486210.0,AZ,35.5551,-109.7277,2010,KINDER MORGAN INC,100.0,KINDER MORGAN INC,KMI
1002196,"EPNG Station 6793 Wenden, AZ",26587.0,486210.0,AZ,33.53983,-113.4558,2010,KINDER MORGAN INC,100.0,KINDER MORGAN INC,KMI
1007437,"EPNG Station 6794 Williams, AZ",79870.698,486210.0,AZ,35.120793,-112.143022,2010,KINDER MORGAN INC,100.0,KINDER MORGAN INC,KMI
1002064,"EPNG Station 6796 Window Rock, AZ",88863.216,486210.0,AZ,35.6159,-109.12496,2010,KINDER MORGAN INC,100.0,KINDER MORGAN INC,KMI
1003622,EPPERSON WASTE DISPOSAL,49245.7,562212.0,KY,38.619741,-84.536103,2010,REPUBLIC SERVICES INC,100.0,REPUBLIC SERVICES INC,RSG
1002758,EQUISTAR CHEMICALS LAPORTE COMPLEX,924649.714,325110.0,TX,29.717471,-95.068008,2010,LYONDELLBASELL INDUSTRIES INC,100.0,LYONDELLBASELL INDUSTRIES INC,LYB
1006656,EQUISTAR CHEMICALS LIMITED PARTNERSHIP BAYPORT PLANT,135478.452,325199.0,TX,29.627167,-95.080194,2010,LYONDELLBASELL INDUSTRIES INC,100.0,LYONDELLBASELL INDUSTRIES INC,LYB
1000342,EQUISTAR CHEMICALS LP,285388.91,325110.0,IL,41.412897,-88.329773,2010,LYONDELLBASELL INDUSTRIES INC,100.0,LYONDELLBASELL INDUSTRIES INC,LYB
1002927,EQUISTAR CHEMICALS LP,510093.51,325199.0,IA,41.807364,-90.295307,2010,LYONDELLBASELL INDUSTRIES INC,100.0,LYONDELLBASELL INDUSTRIES INC,LYB
1006120,EQUISTAR CHEMICALS LP MATAGOR DA FACILITY,28427.052,325211.0,TX,28.7875,-95.943056,2010,LYONDELLBASELL INDUSTRIES INC,100.0,LYONDELLBASELL INDUSTRIES INC,LYB
1004880,EQUISTAR CORPUS CHRISTI PLANT,1038238.462,325110.0,TX,27.81,-97.593611,2010,LYONDELLBASELL INDUSTRIES INC,100.0,LYONDELLBASELL INDUSTRIES INC,LYB
1007987,EVERGREEN LANDFILL/FKA PELLEGRENE SITE,18571.476656,562212.0,PA,40.639851,-79.127296,2010,WASTE MANAGEMENT INC,100.0,WASTE MANAGEMENT INC,WM
1007723,EVERGREEN RECYCLING & DISPOSAL,136022.81506,562212.0,OH,41.602509,-83.50457,2010,WASTE MANAGEMENT INC,100.0,WASTE MANAGEMENT INC,WM
1007643,EXXONMOBIL BATON ROUGE REFINERY AND CHEMICAL PLANT,6706857.454,324110.0,LA,30.484917,-91.17392,2010,EXXON MOBIL CORP,100.0,EXXON MOBIL CORP,XOM
1007542,EXXONMOBIL Bt Site,10794723.212,324110.0,TX,29.73934,-95.022404,2010,EXXON MOBIL CORP,100.0,EXXON MOBIL CORP,XOM
1003484,EXXONMOBIL CHEMICAL CO - BATON ROUGE PLASTICS PLANT,43175.088,325211.0,LA,30.552014,-91.178517,2010,EXXON MOBIL CORP,100.0,EXXON MOBIL CORP,XOM
1006801,EXXONMOBIL CHEMICAL CO - BATON ROUGE POLYOLEFINS PLANT,86884.592,325211.0,LA,30.560139,-91.2055,2010,EXXON MOBIL CORP,100.0,EXXON MOBIL CORP,XOM
1006274,EXXONMOBIL CHEMICAL MONT BELVIEU PLASTICS PLANT,43334.236,325211.0,TX,29.8742,-94.9122,2010,EXXON MOBIL CORP,100.0,EXXON MOBIL CORP,XOM
1006068,EXXONMOBIL OIL JOLIET REFINERY,2511105.526,324110.0,IL,41.4167,-88.1833,2010,EXXON MOBIL CORP,100.0,EXXON MOBIL CORP,XOM
1001006,East Bend,4150709.39,221112.0,KY,38.9031,-84.8511,2010,DUKE ENERGY CORP,100.0,DUKE ENERGY CORP,DUK
1000761,East River,2284191.198,221330.0,NY,40.7281,-73.9742,2010,CONSOLIDATED EDISON INC,100.0,CONSOLIDATED EDISON INC,ED
1007438,Eastman Chemical - Texas Operations,2016890.73,325199.0,TX,32.4472,-94.6917,2010,Eastman Chemical Co,100.0,EASTMAN CHEMICAL CO,EMN
1000232,Eastman Chemical Company,4557425.786,325211.0,TN,36.5192,-82.535,2010,Eastman Chemical Co,100.0,EASTMAN CHEMICAL CO,EMN
1004957,Eastman Chemical Texas City Operations,59937.544,325110.0,TX,29.380301,-94.894036,2010,EASTMAN CHEMICAL CO,100.0,EASTMAN CHEMICAL CO,EMN
1000898,Eddystone Generating Station,2564819.354,221112.0,PA,39.858,-75.323,2010,CONSTELLATION ENERGY CORP,100.0,CONSTELLATION ENERGY CORP,CEG
1000983,Edgewater (4050),4382926.172,221112.0,WI,43.715,-87.7094,2010,ALLIANT ENERGY CORP,100.0,ALLIANT ENERGY CORP,LNT
1001392,Edward L Addison Generating Plant,36490.376,221112.0,GA,32.911,-84.3059,2010,THE SOUTHERN CO,100.0,THE SOUTHERN CO,SO
1001541,Edwardsport,170584.882,221112.0,IN,38.8067,-87.2472,2010,DUKE ENERGY CORP,100.0,DUKE ENERGY CORP,DUK
1002473,El Centro Landfill,55320.0,562212.0,TX,27.724972,-97.652075,2010,REPUBLIC SERVICES INC,100.0,REPUBLIC SERVICES INC,RSG
1000521,Electrifarm,79596.904,221112.0,IA,42.4407,-92.4205,2010,BERKSHIRE HATHAWAY INC,100.0,BERKSHIRE HATHAWAY INC,BRK.B
1000312,Elizabeth River Combustion Turbine Sta,123769.88,221112.0,VA,36.7743,-76.3119,2010,DOMINION ENERGY INC,100.0,DOMINION ENERGY INC,D
1003629,"Ellisburg Station - Dominion Transmission, Inc",64419.208,486210.0,PA,41.92991,-77.868402,2010,BERKSHIRE HATHAWAY INC,100.0,BERKSHIRE HATHAWAY INC,BRK.B
1000491,Elm Road Generating Station,2407484.634,221112.0,WI,42.8445,-87.829,2010,WEC Energy Group Inc,84.0,WEC ENERGY GROUP INC,WEC
1000317,Emery Station,222065.028,221112.0,IA,43.094,-93.2922,2010,ALLIANT ENERGY CORP,100.0,ALLIANT ENERGY CORP,LNT
1001370,"Ennis Power Company, LLC",580045.4,221112.0,TX,32.3194,-96.6739,2010,Vistra Corp,100.0,VISTRA CORP,VST
1006814,Equistar Chemicals LP,36397.11,325211.0,LA,30.24478,-93.288546,2010,LYONDELLBASELL INDUSTRIES INC,100.0,LYONDELLBASELL INDUSTRIES INC,LYB
1007959,Exxonmobil Beaumont Refinery,5747274.514,324110.0,TX,30.0639,-94.0703,2010,EXXON MOBIL CORP,100.0,EXXON MOBIL CORP,XOM
1001544,F B Culley Generating Station,2216459.652,221112.0,IN,37.91,-87.3267,2010,CENTERPOINT ENERGY INC,100.0,CENTERPOINT ENERGY INC,CNP
1005805,FILLMORE COMPRESSOR STATION,88885.466,486210.0,UT,38.867608,-112.423186,2010,BERKSHIRE HATHAWAY INC,100.0,BERKSHIRE HATHAWAY INC,BRK.B
1007753,FITCHBURG WESTMINSTER LANDFILL RECYCLING CENTER,38522.393431,562212.0,MA,42.533852,-71.845589,2010,WASTE MANAGEMENT INC,100.0,WASTE MANAGEMENT INC,WM
1006251,FIVE OAKS RECYCLING & DISPOSAL FACILITY,52950.333502,562212.0,IL,39.56,-89.3725,2010,WASTE MANAGEMENT INC,100.0,WASTE MANAGEMENT INC,WM
1002781,FLORIDA GAS TRANSMISSION COMPANY - CARRYVILLE,28380.95,486210.0,FL,30.67724,-85.84268,2010,KINDER MORGAN INC,50.0,KINDER MORGAN INC,KMI
1002837,FLORIDA GAS TRANSMISSION COMPANY - MUNSON,83959.98,486210.0,FL,30.911465,-86.887276,2010,KINDER MORGAN INC,50.0,KINDER MORGAN INC,KMI
1003148,FLORIDA GAS TRANSMISSION COMPANY - TRENTON,30172.83,486210.0,FL,29.663916,-82.84698,2010,KINDER MORGAN INC,50.0,KINDER MORGAN INC,KMI
1006917,FMC BIOPOLYMER FOOD INGREDIENTS,51200.2,311999.0,ME,44.107014,-69.104236,2010,INTERNATIONAL FLAVORS & FRAGRANCES INC,100.0,INTERNATIONAL FLAVORS & FRAGRANCES INC,IFF
1006673,FMC CORP,31579.78,325199.0,DE,39.681306,-75.720694,2010,INTERNATIONAL FLAVORS & FRAGRANCES INC,100.0,INTERNATIONAL FLAVORS & FRAGRANCES INC,IFF
1006758,FOOTHILLS LANDFILL,22592.5,562212.0,CO,39.850794,-105.227345,2010,REPUBLIC SERVICES INC,100.0,REPUBLIC SERVICES INC,RSG
1005024,FORD MOTOR COMPANY - FORD KANSAS CITY ASSEMBLY PLANT,92463.902,336112.0,MO,39.20438,-94.47801,2010,FORD MOTOR CO,100.0,FORD MOTOR CO,F
1002626,FORD MOTOR COMPANY - FORD KENTUCKY TRUCK PLANT,72046.553,336112.0,KY,38.2935,-85.5322,2010,FORD MOTOR CO,100.0,FORD MOTOR CO,F
1004951,FORD MOTOR COMPANY - FORD LOUISVILLE ASSEMBLY PLANT,36601.912,336112.0,KY,38.15498,-85.72715,2010,FORD MOTOR CO,100.0,FORD MOTOR CO,F
1002755,FORD MOTOR COMPANY - FORD MICHIGAN ASSEMBLY SITE,54485.784235,336111.0,MI,42.278378,-83.412204,2010,FORD MOTOR CO,100.0,FORD MOTOR CO,F
1000104,FORD MOTOR COMPANY - FORD OHIO ASSEMBLY PLANT,51955.6492,336111.0,OH,41.48604,-82.06159,2010,FORD MOTOR CO,100.0,FORD MOTOR CO,F
1006754,FORD MOTOR COMPANY - FORD RESEARCH AND ENGINEERING CENTER,75040.068,541712.0,MI,42.301055,-83.232993,2010,FORD MOTOR CO,100.0,FORD MOTOR CO,F
1005668,FORD MOTOR COMPANY - FORD ROUGE SITE,62490.1974575,336112.0,MI,42.3025,-83.154167,2010,FORD MOTOR CO,100.0,FORD MOTOR CO,F
1003262,FORD MOTOR COMPANY - FORD STERLING PLANT,49580.6832,336350.0,MI,42.58344,-83.04989,2010,FORD MOTOR CO,100.0,FORD MOTOR CO,F
1003623,FOREST LAWN LANDFILL,112779.4,562212.0,MI,41.775968,-86.654864,2010,REPUBLIC SERVICES INC,100.0,REPUBLIC SERVICES INC,RSG
1004309,FOREST VIEW LANDFILL,7460.0,562212.0,KS,39.10408,-94.68803,2010,REPUBLIC SERVICES INC,100.0,REPUBLIC SERVICES INC,RSG
1006085,FORNEY POWER PLANT,2703777.08,221112.0,TX,32.7563,-96.4916,2010,Vistra Corp,100.0,VISTRA CORP,VST
1004561,FORT WORTH REGIONAL LANDFILL,15312.5,562212.0,TX,32.789533,-97.242917,2010,REPUBLIC SERVICES INC,100.0,REPUBLIC SERVICES INC,RSG
1004010,FORWARD LANDFILL,36990.0,562212.0,CA,37.87396,-121.1831,2010,REPUBLIC SERVICES INC,100.0,REPUBLIC SERVICES INC,RSG
1006947,FREEPORT-MCMORAN MIAMI INC,88580.966,331411.0,AZ,33.412655,-110.856538,2010,FREEPORT-MCMORAN INC,100.0,FREEPORT-MCMORAN INC,FCX
1003521,FREY FARM-CRESWELL LDFL,54430.0,562212.0,PA,39.955047,-76.446215,2010,LANCASTER COUNTY SOILD WASTE MANAGEMENT AUTHORITY,100.0,LANCASTER COUNTY SOILD WASTE MANAGEMENT AUTHORITY,WM
1004983,FRITO-LAY,39888.19,311919.0,CT,41.86392,-71.89399,2010,PEPSICO INC,100.0,PEPSICO INC,PEP
1005677,FRITO-LAY INC,71057.826,311919.0,IN,40.284167,-86.556944,2010,PEPSICO INC,100.0,PEPSICO INC,PEP
1004898,"FRITO-LAY, INC. - PERRY PLANT",28340.744,311919.0,GA,32.450962,-83.598408,2010,PEPSICO INC,100.0,PEPSICO INC,PEP
1005424,"FRITO-LAY, INCORPORATED",49133.52,311919.0,NC,35.11746,-80.94108,2010,PEPSICO INC,100.0,PEPSICO INC,PEP
1007203,Flint Creek Power Plant,3537556.954,221112.0,AR,36.2561,-94.5241,2010,AMERICAN ELECTRIC POWER CO INC,50.0,AMERICAN ELECTRIC POWER CO INC,AEP
1007044,Foothills Environmental,104837.5,562212.0,NC,35.914488,-81.593527,2010,REPUBLIC SERVICES INC,100.0,REPUBLIC SERVICES INC,RSG
1006752,Ford Motor Company - Chicago Assembly Plant,38058.429247,336111.0,IL,41.66501,-87.56084,2010,FORD MOTOR CO,100.0,FORD MOTOR CO,F
1001722,Ford Motor Company - Flat Rock Assembly Plant,47590.2556,336111.0,MI,42.10247,-83.24356,2010,FORD MOTOR CO,100.0,FORD MOTOR CO,F
1007576,Fort Churchill,91282.412,221112.0,NV,39.1281,-119.1319,2010,BERKSHIRE HATHAWAY INC,100.0,BERKSHIRE HATHAWAY INC,BRK.B
1000971,Fort Martin Power Station,6546212.64,221112.0,WV,39.7107,-79.9275,2010,FIRSTENERGY CORP,100.0,FIRSTENERGY CORP,FE
1001483,Fort Myers,3728311.87,221112.0,FL,26.6967,-81.7831,2010,NEXTERA ENERGY INC,100.0,NEXTERA ENERGY INC,NEE
1001029,Fort St. Vrain,1418612.092,221112.0,CO,40.2461,-104.8742,2010,XCEL ENERGY INC,100.0,XCEL ENERGY INC,XEL
1001267,Fort Worth Brewery,33726.896,312120.0,TX,32.644444,-97.319167,2010,MOLSON COORS BEVERAGE CO,100.0,MOLSON COORS BEVERAGE CO,TAP
1000421,Fox Energy Center,211998.962,221112.0,WI,44.3204,-88.2089,2010,WEC Energy Group Inc,100.0,WEC ENERGY GROUP INC,WEC
1006378,Freeport-McMoRan Morenci,26082.552,212234.0,AZ,33.065,-109.34222,2010,FREEPORT-MCMORAN INC,100.0,FREEPORT-MCMORAN INC,FCX
1000219,French Island,43385.91,221112.0,WI,43.8298,-91.26,2010,XCEL ENERGY INC,100.0,XCEL ENERGY INC,XEL
1002394,Frito-Lay COGEN PLANT,48965.216,311919.0,CA,35.398111,-119.255371,2010,PEPSICO INC,100.0,PEPSICO INC,PEP
1000830,G G Allen,5083417.23,221112.0,NC,35.1897,-81.0122,2010,DUKE ENERGY CORP,100.0,DUKE ENERGY CORP,DUK
1006805,GALLATIN COUNTY LOGAN LANDFILL,25268.25,562212.0,MT,45.87462,-111.41042,2010,GALLATIN COUNTY SOLID WASTE MANAGEMENT DISTRICT,100.0,GALLATIN COUNTY SOLID WASTE MANAGEMENT DISTRICT,WM
1005894,GALVESTON COUNTY LANDFILL,85310.0,562212.0,TX,29.387909,-95.055889,2010,REPUBLIC SERVICES INC,100.0,REPUBLIC SERVICES INC,RSG
1001862,"GE Aviation, Evendale Plant (1431150060)",69064.838,336412.0,OH,39.24661,-84.44474,2010,GENERAL ELECTRIC CO,100.0,GENERAL ELECTRIC CO,GE
1004412,GE GLOBAL RESEARCH CENTER,25453.888,541712.0,NY,42.834509,-73.879343,2010,GENERAL ELECTRIC CO,100.0,GENERAL ELECTRIC CO,GE
1004697,GE Transportation-Erie Plant,58075.33,336510.0,PA,42.145453,-80.02544,2010,WABTEC US RAIL INC,100.0,WABTEC US RAIL INC,WAB
1002243,GENERAL ELECTRIC PEEBLES TEST OPERATIONS,64919.824,541712.0,OH,38.91738,-83.29864,2010,GENERAL ELECTRIC CO,100.0,GENERAL ELECTRIC CO,GE
1004366,GENERAL MILLS INC.,28007.144,311230.0,GA,33.625407,-83.832355,2010,GENERAL MILLS INC,100.0,GENERAL MILLS INC,GIS
1002828,GENERAL MOTORS FAIRFAX ASSEMBLY PLANT,56201.288,336111.0,KS,39.147607,-94.604954,2010,GENERAL MOTORS CO,100.0,GENERAL MOTORS CO,GM
1003506,GENERAL MOTORS FORT WAYNE ASSEMBLY,75882.018,336112.0,IN,40.964311,-85.302752,2010,GENERAL MOTORS CO,100.0,GENERAL MOTORS CO,GM
1004605,GENERAL MOTORS LANSING DELTA TOWNSHIP,41020.296,336111.0,MI,42.692278,-84.679356,2010,GENERAL MOTORS CO,100.0,GENERAL MOTORS CO,GM
1002875,GENERAL MOTORS LLC BEDFORD CETC,34477.22,331521.0,IN,38.880077,-86.48219,2010,GENERAL MOTORS CO,100.0,GENERAL MOTORS CO,GM
1003225,GENERAL MOTORS MLCG DETROIT-HAMTRAMCK ASSEM BLY CENTER,88144.172,336111.0,MI,42.381971,-83.044919,2010,GENERAL MOTORS CO,100.0,GENERAL MOTORS CO,GM
1002347,GENERAL MOTORS SAGINAW METAL CASTING OPERATIONS,50737.008,331524.0,MI,43.4503,-83.920477,2010,GENERAL MOTORS CO,100.0,GENERAL MOTORS CO,GM
1003392,GENEVA LANDFILL,45477.231603,562212.0,OH,41.791626,-80.90796,2010,WASTE MANAGEMENT INC,100.0,WASTE MANAGEMENT INC,WM
1004987,GEORGIA FEED PRODUCTS CO,71077.032,311613.0,GA,31.770884,-84.734284,2010,TYSON FOODS INC,100.0,TYSON FOODS INC,TSN
1005984,GERRESHEIMER GLASS INC,32260.86,327215.0,NJ,39.497435,-75.021192,2010,CORNING INC,100.0,CORNING INC,GLW
1002066,GIDDINGS GAS PLANT,79475.169,211112.0,TX,30.0383,-96.9872,2010,PHILLIPS 66,86.8,PHILLIPS 66,PSX
1002497,GILLETTE CO,43495.736,332211.0,MA,42.34512,-71.05441,2010,THE PROCTER & GAMBLE CO,100.0,THE PROCTER & GAMBLE CO,PG
1003257,GLEN\S SANITARY LANDFILL,42765.795345,562212.0,MI,44.786194,-85.845963,2010,WASTE MANAGEMENT INC,100.0,WASTE MANAGEMENT INC,WM
1000380,GM TECHNICAL CENTER,46576.524,336211.0,MI,42.52457,-83.04225,2010,GENERAL MOTORS CO,100.0,GENERAL MOTORS CO,GM
1002953,GM VAN SLYKE COMPLEX,56390.188,336112.0,MI,42.98785,-83.71324,2010,GENERAL MOTORS LLC,100.0,GENERAL MOTORS LLC,GM
1006371,GMC TRUCK GROUP ARLINGTON ASSEMBLY PLANT,56095.888,336112.0,TX,32.73533,-97.06772,2010,GENERAL MOTORS CO,100.0,GENERAL MOTORS CO,GM
1002426,GNRL MILLS,41654.496,311230.0,IA,41.933677,-91.71648,2010,GENERAL MILLS INC,100.0,GENERAL MILLS INC,GIS
1005964,GOLDEN TRIANGLE REGIONAL SOLID WASTE MANAGEMENT AUTHORITY,152749.7,562111.0,MS,33.52825,-88.672389,2010,GOLDEN TRIANGLE REGIONAL SOLID WASTE MANAGEMENT AUTHORITY,100.0,GOLDEN TRIANGLE REGIONAL SOLID WASTE MANAGEMENT AUTHORITY,WM
1000363,"GOODRICH SPOKANE LANDING SYSTEMS, CARBON PRODUCTS",25032.506,336413.0,WA,47.583604,-117.568511,2010,RAYTHEON TECHNOLOGIES CORP,100.0,RAYTHEON TECHNOLOGIES CORP,RTX
1007685,GRANBY SANITARY LANDFILL,17781.563175,562212.0,MA,42.227281,-72.547189,2010,WASTE MANAGEMENT INC,100.0,WASTE MANAGEMENT INC,WM
1003460,GRAND CTL SANI,44340.88064,562212.0,PA,40.845373,-75.262957,2010,WASTE MANAGEMENT INC,100.0,WASTE MANAGEMENT INC,WM
1007862,GRAY WOLF REGIONAL LANDFILL,85509.885273,562212.0,AZ,34.5155,-112.0471,2010,WASTE MANAGEMENT INC,100.0,WASTE MANAGEMENT INC,WM
1006310,GREELEY GAS PLANT,42734.029,211112.0,CO,40.364235,-104.730316,2010,PHILLIPS 66,86.8,PHILLIPS 66,PSX
1005791,"GREEN PLAINS BLUFFTON, LLC",169682.96,325193.0,IN,40.722139,-85.193722,2010,VALERO ENERGY CORP,100.0,VALERO ENERGY CORP,VLO
1004483,GREEN VALLEY LANDFILL,49337.5,562212.0,KY,38.39657,-82.80856,2010,REPUBLIC SERVICES INC,100.0,REPUBLIC SERVICES INC,RSG
1007925,GREENRIDGE RECLAMATION Landfill,76914.5,562212.0,PA,40.129795,-79.582262,2010,REPUBLIC SERVICES INC,100.0,REPUBLIC SERVICES INC,RSG
1007615,GROWS LDFL WASTE MGMT,140778.323548,562212.0,PA,40.159344,-74.776695,2010,WASTE MANAGEMENT INC,100.0,WASTE MANAGEMENT INC,WM
1006811,Gadsby,243985.196,221112.0,UT,40.7686,-111.9289,2010,BERKSHIRE HATHAWAY INC,100.0,BERKSHIRE HATHAWAY INC,BRK.B
1001200,General Electric Aviation,101134.084,336412.0,MA,42.45,-70.9739,2010,GENERAL ELECTRIC CO,100.0,GENERAL ELECTRIC CO,GE
1004317,General Motors LLC Wentzville,106527.582,336111.0,MO,38.813792,-90.820376,2010,GENERAL MOTORS CO,100.0,GENERAL MOTORS CO,GM
1001612,George Neal North,6670669.526,221112.0,IA,42.3251,-96.3797,2010,ALLIANT ENERGY CORP,15.18,ALLIANT ENERGY CORP,LNT
1001144,Georgetown Substation,52976.752,221112.0,IN,39.9022,-86.2439,2010,AES CORP,50.0,AES CORP,AES
1001189,Gerald Andrus,990714.15,221112.0,MS,33.3503,-91.1181,2010,ENTERGY CORP,100.0,ENTERGY CORP,ETR
1006633,Germantown Power Plant,11039.3,221112.0,WI,43.1952,-88.1496,2010,WEC Energy Group Inc,100.0,WEC ENERGY GROUP INC,WEC
1006512,Ghent,12300549.346,221112.0,KY,38.7497,-85.035,2010,PPL CORP,100.0,PPL CORP,PPL
1003537,"Gilmore Station - Dominion Transmission, Inc",29769.888,486210.0,OH,40.28667,-81.46528,2010,BERKSHIRE HATHAWAY INC,100.0,BERKSHIRE HATHAWAY INC,BRK.B
1002475,Golden Triangle Landfill,101502.5,562212.0,TX,29.99487,-94.16929,2010,REPUBLIC SERVICES INC,100.0,REPUBLIC SERVICES INC,RSG
1000264,Goose Creek Power Plant,50851.412,221112.0,IL,40.1083,-88.5986,2010,AMEREN CORP,100.0,AMEREN CORP,AEE
1000263,Gordonsville Power Station,302480.818,221112.0,VA,38.1245,-78.2031,2010,DOMINION ENERGY INC,100.0,DOMINION ENERGY INC,D
1000941,Graham,305318.568,221112.0,TX,33.135,-98.6117,2010,Vistra Corp,100.0,VISTRA CORP,VST
1001871,Granger Gas Plant,69077.74,211111.0,WY,41.5394,-109.9557,2010,OCCIDENTAL PETROLEUM CORP,100.0,OCCIDENTAL PETROLEUM CORP,OXY
1000302,Gravel Neck Combustion Turbine,93838.76,221112.0,VA,37.1575,-76.6911,2010,DOMINION ENERGY INC,100.0,DOMINION ENERGY INC,D
1000223,Greater Des Moines Energy Center,186656.668,221112.0,IA,41.5563,-93.5283,2010,BERKSHIRE HATHAWAY INC,100.0,BERKSHIRE HATHAWAY INC,BRK.B
1005306,Green Plains Lakota LLC,157576.404,325193.0,IA,43.38391,-94.14706,2010,VALERO ENERGY CORP,100.0,VALERO ENERGY CORP,VLO
1000364,Greene County,2635031.66,221112.0,AL,32.6017,-87.7811,2010,THE SOUTHERN CO,100.0,THE SOUTHERN CO,SO
1003512,"Greenlick Station - Dominion Transmission, Inc",62922.712,486210.0,PA,41.325794,-77.768095,2010,BERKSHIRE HATHAWAY INC,100.0,BERKSHIRE HATHAWAY INC,BRK.B
1005671,Greens Bayou,143716.091,221112.0,TX,29.8208,-95.2194,2010,NRG ENERGY INC,100.0,NRG ENERGY INC,NRG
1001012,Greenwood,308180.8,221112.0,MI,43.1056,-82.6964,2010,DTE ENERGY CO,100.0,DTE ENERGY CO,DTE
1006927,Gregory Power Facility,1629683.608,221112.0,TX,27.8881,-97.2572,2010,NRG ENERGY INC,100.0,NRG ENERGY INC,NRG
1004160,"Groveport Station - Dominion Transmission, Inc",25424.9,486210.0,OH,39.8121,-82.8423,2010,BERKSHIRE HATHAWAY INC,100.0,BERKSHIRE HATHAWAY INC,BRK.B
1007837,Guadalupe Rubbish Disposal Facility,85895.812328,562212.0,CA,37.20948,-121.89999,2010,WASTE MANAGEMENT INC,100.0,WASTE MANAGEMENT INC,WM
1004744,Gulf Coast Fractionators,146887.796,211112.0,TX,29.85528,-94.9124,2010,TARGA RESOURCES CORP,38.75,TARGA RESOURCES CORP,TRGP
1007991,Gulf Coast RDF,8592.75,562212.0,FL,26.603184,-81.768787,2010,WASTE MANAGEMENT INC,100.0,WASTE MANAGEMENT INC,WM
1005027,Gulf Crossing Pipeline - Mira Station,60912.92,486210.0,LA,32.968343,-93.917859,2010,LOEWS CORP,100.0,LOEWS CORP,L
1005028,Gulf Crossing Pipeline - Paris Station,79959.748,486210.0,TX,33.517866,-95.646314,2010,LOEWS CORP,100.0,LOEWS CORP,L
1004734,Gulf Crossing Pipeline - Sterlington Station,56661.436,486210.0,LA,32.67155,-92.08936,2010,LOEWS CORP,100.0,LOEWS CORP,L
1005078,Gulf South Pipeline - Carthage Jct Station,131766.904,486210.0,TX,32.162739,-94.338287,2010,LOEWS CORP,100.0,LOEWS CORP,L
1005079,Gulf South Pipeline - Hall Summit Station,39088.252,486210.0,LA,32.24565,-93.28233,2010,LOEWS CORP,100.0,LOEWS CORP,L
1004945,Gulf South Pipeline - Harrisville Station,89721.312,486210.0,MS,32.043354,-90.13401,2010,LOEWS CORP,100.0,LOEWS CORP,L
1004946,Gulf South Pipeline - Tallulah Station,94934.892,486210.0,LA,32.39598,-91.173699,2010,LOEWS CORP,100.0,LOEWS CORP,L
1004736,Gulf South Pipeline - Vixen Station,91307.556,486210.0,LA,32.311838,-92.268272,2010,LOEWS CORP,100.0,LOEWS CORP,L
1001778,"Gunnison Spar, Garden Banks 668 Platform",27251.324,211111.0,TX,27.3038,-92.4617,2010,OCCIDENTAL PETROLEUM CORP,100.0,OCCIDENTAL PETROLEUM CORP,OXY
1000906,H B Robinson / Darlington Electric Power Plant,1085043.262,221112.0,SC,34.4017,-80.1589,2010,DUKE ENERGY CORP,100.0,DUKE ENERGY CORP,DUK
1000786,H F Lee Steam Electric Plant,2459856.366,221112.0,NC,35.3775,-78.0875,2010,DUKE ENERGY CORP,100.0,DUKE ENERGY CORP,DUK
1001176,H W Pirkey Power Plant,4657655.88,221112.0,TX,32.4607,-94.4852,2010,AMERICAN ELECTRIC POWER CO INC,85.94,AMERICAN ELECTRIC POWER CO INC,AEP
1007550,HALIFAX LANDFILL,2415.0,562212.0,MA,41.9923,-70.89789,2010,REPUBLIC SERVICES INC,100.0,REPUBLIC SERVICES INC,RSG
1007721,HASTINGS SANITARY LANDFILL,10617.977897,562212.0,MI,42.68109,-85.297807,2010,WASTE MANAGEMENT INC,100.0,WASTE MANAGEMENT INC,WM
1006090,HICKORY HILL LANDFILL/RECYCLING,58063.857006,562212.0,SC,32.387092,-80.90801,2010,WASTE MANAGEMENT INC,100.0,WASTE MANAGEMENT INC,WM
1004559,HICKORY RIDGE LANDFILL,42757.5,562212.0,GA,33.65955,-84.33589,2010,REPUBLIC SERVICES INC,100.0,REPUBLIC SERVICES INC,RSG
1007648,HIGH ACRES LANDFILL & RECYCLING CENTER,285122.525494,562212.0,NY,43.08692,-77.38734,2010,WASTE MANAGEMENT INC,100.0,WASTE MANAGEMENT INC,WM
1005864,HOLLY SUGAR CORP DBA SPRECKELS COMPANY,106833.116,311313.0,CA,32.9098,-115.5668,2010,SOUTHERN MINNESOTA BEET SUGAR COOPERATIVE,100.0,SOUTHERN MINNESOTA BEET SUGAR COOPERATIVE,SO
1000628,HONEYWELL - UOP LLC,40300.648,325188.0,AL,30.758831,-88.059471,2010,HONEYWELL INTERNATIONAL INC,100.0,HONEYWELL INTERNATIONAL INC,HON
1000631,HONEYWELL INTERNATIONAL INC,22999.67,325188.0,IL,37.171154,-88.757255,2010,HONEYWELL INTERNATIONAL INC,100.0,HONEYWELL INTERNATIONAL INC,HON
1000625,HONEYWELL INTERNATIONAL INC - BATON ROUGE PLANT,3911265.948,325120.0,LA,30.474444,-91.183056,2010,HONEYWELL INTERNATIONAL INC,100.0,HONEYWELL INTERNATIONAL INC,HON
1006070,HONEYWELL INTERNATIONAL INC - GEISMAR COMPLEX,110889.51,325120.0,LA,30.22847,-91.05435,2010,HONEYWELL INTERNATIONAL INC,100.0,HONEYWELL INTERNATIONAL INC,HON
1006347,HORMEL FOODS CORPORATION,43497.15,311612.0,MN,43.678056,-92.965833,2010,HORMEL FOODS CORP,100.0,HORMEL FOODS CORP,HRL
1004130,HOUSTON REFINING,1800390.396,324110.0,TX,29.7125,-95.235833,2010,LYONDELLBASELL INDUSTRIES INC,100.0,LYONDELLBASELL INDUSTRIES INC,LYB
1007593,HUNTINGTON ALLOYS CORPORATION,87531.42,331491.0,WV,38.414353,-82.384179,2010,BERKSHIRE HATHAWAY INC,100.0,BERKSHIRE HATHAWAY INC,BRK.B
1001958,HUNTINGTON INGALLS INCORPORATED,78581.89,336611.0,VA,36.990641,-76.432803,2010,HUNTINGTON INGALLS INDUSTRIES INC,100.0,HUNTINGTON INGALLS INDUSTRIES INC,HII
1000942,Handley Generating Station,239552.36,221112.0,TX,32.7278,-97.2186,2010,CONSTELLATION ENERGY CORP,100.0,CONSTELLATION ENERGY CORP,CEG
1001378,Handsome Lake Energy,17942.732,221112.0,PA,41.2908,-79.8061,2010,CONSTELLATION ENERGY CORP,100.0,CONSTELLATION ENERGY CORP,CEG
1000530,Hardin County Peaking Facility,37744.56,221112.0,TX,30.3039,-94.2527,2010,ENTERGY TEXAS INC,100.0,ENTERGY TEXAS INC,ETR
1001533,Harding Street Station (EW Stout),3211440.098,221112.0,IN,39.7119,-86.1975,2010,AES CORP,100.0,AES CORP,AES
1001042,Harrington Station,6336391.018,221112.0,TX,35.2972,-101.7475,2010,XCEL ENERGY INC,100.0,XCEL ENERGY INC,XEL
1007793,Harrison Power Station,11059974.054,221112.0,WV,39.3844,-80.3325,2010,FIRSTENERGY CORP,100.0,FIRSTENERGY CORP,FE
1006804,Harry Allen,7441.08,221112.0,NV,36.425,-114.9,2010,BERKSHIRE HATHAWAY INC,100.0,BERKSHIRE HATHAWAY INC,BRK.B
1000487,Harry D. Mattison Power Plant,79554.704,221112.0,AR,36.1855,-94.2841,2010,AMERICAN ELECTRIC POWER CO INC,100.0,AMERICAN ELECTRIC POWER CO INC,AEP
1002676,Hawkins Gas Plant,106196.3,211111.0,TX,32.6105,-95.1957,2010,EXXON MOBIL CORP,100.0,EXXON MOBIL CORP,XOM
1000705,Hawthorn,4002274.694,221112.0,MO,39.1306,-94.4778,2010,EVERGY INC,100.0,EVERGY INC,EVRG
1001335,Hays Energy Facility,1154701.672,221112.0,TX,29.7806,-97.9894,2010,Vistra Corp,100.0,VISTRA CORP,VST
1005429,Henderson Compressor Station,37.264,211111.0,TX,33.585073,-97.656544,2010,EOG RESOURCES INC,100.0,EOG RESOURCES INC,EOG
1001145,Henry County Generating Station,34602.072,221112.0,IN,39.9528,-85.5039,2010,DUKE ENERGY CORP,100.0,DUKE ENERGY CORP,DUK
1000690,High Bridge,362604.608,221112.0,MN,44.9331,-93.1075,2010,XCEL ENERGY INC,100.0,XCEL ENERGY INC,XEL
1006216,Highway 59 Landfill,22.5,562212.0,CA,37.3939,-120.4981,2010,MERCED REGIONAL WASTE MANAGEMENT AUTHORITY,100.0,MERCED REGIONAL WASTE MANAGEMENT AUTHORITY,WM
1000813,Hillabee Energy Center,930565.848,221112.0,AL,33.0,-85.9031,2010,CONSTELLATION ENERGY CORP,100.0,CONSTELLATION ENERGY CORP,CEG
1003614,Hillside Landfill,30425.275,562212.0,TX,33.580772,-96.534544,2010,WASTE MANAGEMENT INC,100.0,WASTE MANAGEMENT INC,WM
1001367,Hinds Energy Facility,480645.168,221112.0,MS,32.3781,-90.2169,2010,ENTERGY CORP,100.0,ENTERGY CORP,ETR
1001112,Hines Energy Complex,4912028.834,221112.0,FL,27.7886,-81.8694,2010,DUKE ENERGY CORP,100.0,DUKE ENERGY CORP,DUK
1003552,"Holstein, MMS Platform ID 02481, Complex ID 1035-1",82303.618,211111.0,LA,29.78026,-95.62931,2010,OCCIDENTAL PETROLEUM CORP,100.0,OCCIDENTAL PETROLEUM CORP,OXY
1000318,Hopewell Cogeneration Facility,629215.91,221119.0,VA,37.2914,-77.2821,2010,Vistra Corp,100.0,VISTRA CORP,VST
1003545,"Horn Mountain MMS Platform ID 02481, Complex ID 876-1",74950.266,211111.0,LA,29.78026,-95.62931,2010,OCCIDENTAL PETROLEUM CORP,100.0,OCCIDENTAL PETROLEUM CORP,OXY
1000815,Hot Spring Energy Facility,318716.52,221112.0,AR,34.2963,-92.8683,2010,ENTERGY CORP,100.0,ENTERGY CORP,ETR
1001193,Huntington,5717681.08,221112.0,UT,39.3792,-111.0781,2010,BERKSHIRE HATHAWAY INC,100.0,BERKSHIRE HATHAWAY INC,BRK.B
1007956,IFF CHEMICAL HOLDINGS INC,29611.84,325199.0,FL,30.34774,-81.7494,2010,INTERNATIONAL FLAVORS & FRAGRANCES INC,100.0,INTERNATIONAL FLAVORS & FRAGRANCES INC,IFF
1002088,ILLINOIS LANDFILL INC,61653.617525,562212.0,IL,40.442376,-87.647368,2010,REPUBLIC SERVICES INC,100.0,REPUBLIC SERVICES INC,RSG
1003103,IMPERIAL Landfill,29558.9,562212.0,PA,40.43493,-80.29011,2010,REPUBLIC SERVICES INC,100.0,REPUBLIC SERVICES INC,RSG
1002588,INDIAN RIVER COUNTY LANDFILL,21192.5,562212.0,FL,27.579974,-80.480171,2010,REPUBLIC SERVICES INC,100.0,REPUBLIC SERVICES INC,RSG
1003997,INTEL - RIO RANCHO FACILITY,36061.164,334413.0,NM,35.23133,-106.65608,2010,INTEL CORP,100.0,INTEL CORP,INTC
1004371,INTEL CORPORATION,29365.14,334413.0,AZ,33.24549,-111.88068,2010,INTEL CORP,100.0,INTEL CORP,INTC
1004006,INTEL CORPORATION RONLER ACRES CAMPUS,37134.612,334413.0,OR,45.543333,-122.917222,2010,INTEL CORP,100.0,INTEL CORP,INTC
1005653,INTERNATIONAL PAPER - BOGALUSA MILL,162880.182,322130.0,LA,30.7766,-89.8577,2010,INTERNATIONAL PAPER CO,100.0,INTERNATIONAL PAPER CO,IP
1006626,INTERNATIONAL PAPER - HENDERSON MILL,52344.25,322130.0,KY,37.81658,-87.58802,2010,INTERNATIONAL PAPER CO,100.0,INTERNATIONAL PAPER CO,IP
1006803,INTERNATIONAL PAPER SAVANNA MILL,648275.89,322130.0,GA,32.10387,-81.123062,2010,INTERNATIONAL PAPER CO,100.0,INTERNATIONAL PAPER CO,IP
1007953,INTERSTATE WASTE REMOVAL PARKLANDS RECLM SLF,5869.693929,562212.0,NJ,40.1272,-74.7111,2010,WASTE MANAGEMENT INC,100.0,WASTE MANAGEMENT INC,WM
1001534,IPL Eagle Valley Generating Station,1142524.29,221112.0,IN,39.4851,-86.4176,2010,AES CORP,100.0,AES CORP,AES
1003612,IRONWOOD LANDFILL,34205.75,562212.0,AZ,33.00781,-111.43122,2010,WASTE MANAGEMENT INC,100.0,WASTE MANAGEMENT INC,WM
1002647,ITASCA LANDFILL,97574.0,562212.0,TX,32.186802,-97.109574,2010,REPUBLIC SERVICES INC,100.0,REPUBLIC SERVICES INC,RSG
1000432,Independence,1404566.292,221112.0,NY,43.495,-76.4508,2010,Vistra Corp,100.0,VISTRA CORP,VST
1001478,Indian River,2136147.829,221112.0,DE,38.5857,-75.2341,2010,NRG ENERGY INC,100.0,NRG ENERGY INC,NRG
1007287,Indiana Harbor Coke Company,818994.012,324199.0,IN,41.65424,-87.44665,2010,DTE ENERGY CO,15.0,DTE ENERGY CO,DTE
1001188,Intercession City Power Plant,575855.414,221112.0,FL,28.2628,-81.5486,2010,DUKE ENERGY CORP,100.0,DUKE ENERGY CORP,DUK
1006703,International Paper - Columbus Mill,105655.042,322110.0,MS,33.360815,-88.458046,2010,INTERNATIONAL PAPER CO,100.0,INTERNATIONAL PAPER CO,IP
1006209,International Paper - Flint River Mill,81991.972,322110.0,GA,32.2531,-84.0691,2010,INTERNATIONAL PAPER CO,100.0,INTERNATIONAL PAPER CO,IP
1007912,International Paper - Georgetown Mill,427742.078,322121.0,SC,33.364166,-79.303279,2010,INTERNATIONAL PAPER CO,100.0,INTERNATIONAL PAPER CO,IP
1005738,International Paper - Mansfield Mill,454523.36,322130.0,LA,32.15889,-93.55667,2010,INTERNATIONAL PAPER CO,100.0,INTERNATIONAL PAPER CO,IP
1000228,International Paper - New Bern Mill,137789.34,322110.0,NC,35.2081,-77.1242,2010,INTERNATIONAL PAPER CO,100.0,INTERNATIONAL PAPER CO,IP
1005909,International Paper - Orange Mill,227502.72,322130.0,TX,30.19347,-93.79798,2010,INTERNATIONAL PAPER CO,100.0,INTERNATIONAL PAPER CO,IP
1000196,International Paper - Pensacola Mill,404861.9,322121.0,FL,30.60539,-87.322938,2010,INTERNATIONAL PAPER CO,100.0,INTERNATIONAL PAPER CO,IP
1002113,International Paper - Pine Hill Mill,248966.99,322130.0,AL,31.969744,-87.480695,2010,INTERNATIONAL PAPER CO,100.0,INTERNATIONAL PAPER CO,IP
1001733,International Paper - Red River Mill,131288.07,322121.0,LA,31.905326,-93.173636,2010,INTERNATIONAL PAPER CO,100.0,INTERNATIONAL PAPER CO,IP
1002149,International Paper - Springfield Mill,134637.686,322130.0,OR,44.055179,-122.952998,2010,INTERNATIONAL PAPER CO,100.0,INTERNATIONAL PAPER CO,IP
1006776,International Paper - Valliant Mill,332211.49,322130.0,OK,33.99919,-95.10972,2010,INTERNATIONAL PAPER CO,100.0,INTERNATIONAL PAPER CO,IP
1000434,International Paper - Vicksburg Mill,115036.14,322121.0,MS,32.52923,-90.774508,2010,INTERNATIONAL PAPER CO,100.0,INTERNATIONAL PAPER CO,IP
1006760,International Paper ROME LINERBOARD MILL,429369.13,322130.0,GA,34.253386,-85.329071,2010,INTERNATIONAL PAPER CO,100.0,INTERNATIONAL PAPER CO,IP
1000377,International Paper-Courtland Mill,498945.066,322121.0,AL,34.735,-87.3108,2010,INTERNATIONAL PAPER CO,100.0,INTERNATIONAL PAPER CO,IP
1000258,International Paper-Franklin Mill,166478.61,322121.0,VA,36.6803,-76.9128,2010,INTERNATIONAL PAPER CO,100.0,INTERNATIONAL PAPER CO,IP
1004901,International Paper-Port Wentworth,78964.512,322110.0,GA,32.155424,-81.159028,2010,INTERNATIONAL PAPER CO,100.0,INTERNATIONAL PAPER CO,IP
1006892,International Paper-Prattville Mill,335456.99,322130.0,AL,32.4167,-86.4667,2010,INTERNATIONAL PAPER CO,100.0,INTERNATIONAL PAPER CO,IP
1007226,International Paper-Riegelwood,262878.67,322110.0,NC,34.3528,-78.2028,2010,INTERNATIONAL PAPER CO,100.0,INTERNATIONAL PAPER CO,IP
1006788,International Paper-Riverdale Mill,269717.71,322121.0,AL,32.425,-86.8694,2010,INTERNATIONAL PAPER CO,100.0,INTERNATIONAL PAPER CO,IP
1003409,Inver Hills Generating Plant,42353.766,221112.0,MN,44.781,-93.042,2010,XCEL ENERGY INC,100.0,XCEL ENERGY INC,XEL
1007671,JAY COUNTY LANDFILL,40966.203212,562212.0,IN,40.380206,-85.091221,2010,WASTE MANAGEMENT INC,100.0,WASTE MANAGEMENT INC,WM
1003624,JEFFERSON CITY LANDFILL,44919.198,562212.0,MO,38.549083,-92.097167,2010,REPUBLIC SERVICES INC,100.0,REPUBLIC SERVICES INC,RSG
1003615,JEFFERSON COUNTY LANDFILL,157728.916125,562212.0,AR,34.339528,-92.185611,2010,WASTE MANAGEMENT INC,100.0,WASTE MANAGEMENT INC,WM
1002476,JEFFERSON DAVIS PARISH LANDFILL,9432.5,562212.0,LA,30.27081,-92.86694,2010,REPUBLIC SERVICES INC,100.0,REPUBLIC SERVICES INC,RSG
1002458,JOHN DEERE FNDRY WATERLOO,34563.114,333111.0,IA,42.503295,-92.35425,2010,DEERE & CO,100.0,DEERE & CO,DE
1002907,JOHNS MANVILLE,57651.49,327212.0,OH,41.53034,-83.70679,2010,BERKSHIRE HATHAWAY INC,100.0,BERKSHIRE HATHAWAY INC,BRK.B
1007968,JOHNS MANVILLE,70236.78,327212.0,TN,35.36813,-84.520764,2010,BERKSHIRE HATHAWAY INC,100.0,BERKSHIRE HATHAWAY INC,BRK.B
1003348,JOHNS MANVILLE INTERNATIONAL INC PLANT NO 8,32956.88,327993.0,OH,41.3044,-84.3393,2010,BERKSHIRE HATHAWAY INC,100.0,BERKSHIRE HATHAWAY INC,BRK.B
1003349,JOHNS MANVILLE PLANT NO 2,32265.684,327993.0,OH,41.2859,-84.3648,2010,BERKSHIRE HATHAWAY INC,100.0,BERKSHIRE HATHAWAY INC,BRK.B
1003494,JW Aluminum,52875.612,331315.0,SC,32.703869,-80.031136,2010,THE GOLDMAN SACHS GROUP INC,30.0,THE GOLDMAN SACHS GROUP INC,GS
1001508,Jack McDonough,2068244.01,221112.0,GA,33.8244,-84.475,2010,THE SOUTHERN CO,100.0,THE SOUTHERN CO,SO
1001393,Jackson Generating Station,285218.244,221112.0,MI,42.2488,-84.3767,2010,CMS ENERGY CORP,100.0,CMS ENERGY CORP,CMS
1007711,Jackson Madison County LF,266581.121625,562212.0,TN,35.58951,-88.876253,2010,REPUBLIC SERVICES INC,100.0,REPUBLIC SERVICES INC,RSG
1000277,Jasper County Generating Facility,1661045.766,221112.0,SC,32.3592,-81.1236,2010,DOMINION ENERGY INC,100.0,DOMINION ENERGY INC,D
1001192,Jim Bridger,14884410.05,221112.0,WY,41.7378,-108.7875,2010,BERKSHIRE HATHAWAY INC,66.67,BERKSHIRE HATHAWAY INC,BRK.B
1000967,John E Amos,14496201.934,221112.0,WV,38.4731,-81.8233,2010,AMERICAN ELECTRIC POWER CO INC,100.0,AMERICAN ELECTRIC POWER CO INC,AEP
1002922,Johns Manville,42160.59,327993.0,OH,41.52197,-83.72026,2010,BERKSHIRE HATHAWAY INC,100.0,BERKSHIRE HATHAWAY INC,BRK.B
1003968,Johns Manville,60380.65,327993.0,TX,32.38548,-97.3924,2010,BERKSHIRE HATHAWAY INC,100.0,BERKSHIRE HATHAWAY INC,BRK.B
1001453,Joliet 29,5998982.806,221112.0,IL,41.4947,-88.125,2010,NRG ENERGY INC,100.0,NRG ENERGY INC,NRG
1001519,Joliet 9,1407879.58,221112.0,IL,41.4947,-88.125,2010,NRG ENERGY INC,100.0,NRG ENERGY INC,NRG
1000937,Jones Station,982776.688,221112.0,TX,33.5239,-101.7392,2010,XCEL ENERGY INC,100.0,XCEL ENERGY INC,XEL
1007744,K & W LANDFILL,70272.615916,562212.0,MI,46.786048,-89.12878,2010,WASTE MANAGEMENT INC,100.0,WASTE MANAGEMENT INC,WM
1006418,KANKAKEE RDF,5780.406025,562212.0,IL,41.029733,-87.86593,2010,WASTE MANAGEMENT INC,100.0,WASTE MANAGEMENT INC,WM
1004011,KELLER CANYON LANDFILL,77305.0,562212.0,CA,38.006584,-121.941018,2010,REPUBLIC SERVICES INC,100.0,REPUBLIC SERVICES INC,RSG
1007688,KELLY RUN SANITATION,8967.026857,562212.0,PA,40.2475,-79.8863,2010,WASTE MANAGEMENT INC,100.0,WASTE MANAGEMENT INC,WM
1005806,KERN RIVER GAS TRANSMISSION CO: COYOTE CREEK COMPRESSOR STATION,40326.5,486210.0,WY,41.068209,-110.759927,2010,BERKSHIRE HATHAWAY INC,100.0,BERKSHIRE HATHAWAY INC,BRK.B
1002763,KERN RIVER GAS TRANSMISSION COMPANY: DRY LAKE COMPRESSOR STATION,44708.632,486210.0,NV,36.29423,-115.28183,2010,BERKSHIRE HATHAWAY INC,100.0,BERKSHIRE HATHAWAY INC,BRK.B
1002762,KERN RIVER GAS TRANSMISSION COMPANY: GOODSPRINGS COMPRESSOR STATION,102052.868,486210.0,NV,35.839798,-115.615473,2010,BERKSHIRE HATHAWAY INC,100.0,BERKSHIRE HATHAWAY INC,BRK.B
1002761,KERN RIVER GAS TRANSMISSION COMPANY: MUDDY CREEK COMPRESSOR STATION,232086.024,486210.0,WY,42.023456,-110.569218,2010,BERKSHIRE HATHAWAY INC,100.0,BERKSHIRE HATHAWAY INC,BRK.B
1005804,KERN RIVER GAS TRANSMISSION COMPANY: SALT LAKE COMPRESSOR STATION,93265.448,486210.0,UT,40.803833,-112.02379,2010,BERKSHIRE HATHAWAY INC,100.0,BERKSHIRE HATHAWAY INC,BRK.B
1002760,KERN RIVER GAS TRANSMISSION COMPANY: VEYO COMPRESSOR STATION,131530.356,486210.0,UT,37.3475,-113.7639,2010,BERKSHIRE HATHAWAY INC,100.0,BERKSHIRE HATHAWAY INC,BRK.B
1003625,KESTREL HAWK LANDFILL,26931.2,562212.0,WI,42.7075,-87.869737,2010,REPUBLIC SERVICES INC,100.0,REPUBLIC SERVICES INC,RSG
1002011,KIMBERLY CLARK CORPORATION,134218.0,322121.0,SC,33.416151,-81.896431,2010,KIMBERLY-CLARK CORP,100.0,KIMBERLY-CLARK CORP,KMB
1000869,KIMBERLY CLARK PA LLC/CHESTER OPR,634861.98,322121.0,PA,39.8439,-75.3575,2010,KIMBERLY-CLARK CORP,100.0,KIMBERLY-CLARK CORP,KMB
1002013,KIMBERLY-CLARK CORP,38148.2,322121.0,WI,45.10477,-87.64984,2010,KIMBERLY-CLARK CORP,100.0,KIMBERLY-CLARK CORP,KMB
1006061,KIMBERLY-CLARK CORP OWENSBORO OPERATIONS,89329.16,322121.0,KY,37.82256,-87.30449,2010,KIMBERLY-CLARK CORP,100.0,KIMBERLY-CLARK CORP,KMB
1006052,KIMBERLY-CLARK CORP-JENKS FAC,77736.0,322121.0,OK,35.969167,-95.918167,2010,KIMBERLY-CLARK CORP,100.0,KIMBERLY-CLARK CORP,KMB
1002179,KIMBERLY-CLARK CORP.,102983.308,322121.0,TN,35.77167,-84.33065,2010,KIMBERLY-CLARK CORP,100.0,KIMBERLY-CLARK CORP,KMB
1002187,KIMBERLY-CLARK TISSUE COMPANY,48927.916,322121.0,AL,30.736194,-88.048535,2010,KIMBERLY-CLARK CORP,100.0,KIMBERLY-CLARK CORP,KMB
1006065,KIMBERLY-CLARK TISSUE MILL,144488.356,322121.0,CT,41.55869,-73.41006,2010,KIMBERLY-CLARK CORP,100.0,KIMBERLY-CLARK CORP,KMB
1006300,KING AND QUEEN LANDFILL,136200.0,562212.0,VA,37.634731,-76.748416,2010,REPUBLIC SERVICES INC,100.0,REPUBLIC SERVICES INC,RSG
1007674,KING GEORGE LANDFILL INC - WM,298973.758605,562212.0,VA,38.277541,-77.314301,2010,WASTE MANAGEMENT INC,100.0,WASTE MANAGEMENT INC,WM
1002923,"KMTP Station 553 Katy, TX",36909.26,486210.0,TX,29.825359,-95.873304,2010,KINDER MORGAN INC,100.0,KINDER MORGAN INC,KMI
1005431,KRIPPLE KREEK GAS PLANT,30.688,211111.0,TX,33.52957,-97.87651,2010,EOG RESOURCES INC,100.0,EOG RESOURCES INC,EOG
1001313,Kalamazoo River Generating Station,5118.132,221112.0,MI,42.2797,-85.4922,2010,CMS ENERGY CORP,100.0,CMS ENERGY CORP,CMS
1004001,Kern River Cogeneration Facility,850048.43,221112.0,CA,35.42686,-118.99222,2010,CHEVRON CORP,100.0,CHEVRON CORP,CVX
1003410,Key City/Wilmarth Plant,65776.79,221112.0,MN,44.196163,-94.003383,2010,XCEL ENERGY INC,100.0,XCEL ENERGY INC,XEL
1001520,"Kincaid Generation, LLC",6468670.262,221112.0,IL,39.5906,-89.4964,2010,Vistra Corp,100.0,VISTRA CORP,VST
1007209,Kinmundy Power Plant,9453.916,221112.0,IL,38.7619,-89.0128,2010,AMEREN CORP,100.0,AMEREN CORP,AEE
1007817,Kirby Canyon Recycling & Disposal Facility,66163.479025,562212.0,CA,37.184174,-121.668625,2010,WASTE MANAGEMENT INC,100.0,WASTE MANAGEMENT INC,WM
1000934,Knox Lee Power Plant,243318.948,221112.0,TX,32.3766,-94.6415,2010,AMERICAN ELECTRIC POWER CO INC,100.0,AMERICAN ELECTRIC POWER CO INC,AEP
1000853,Kyger Creek,6282855.1,221112.0,OH,38.9161,-82.1281,2010,AMERICAN ELECTRIC POWER CO INC,100.0,AMERICAN ELECTRIC POWER CO INC,AEP
1000828,L V Sutton Steam Electric Plant,2520378.822,221112.0,NC,34.2824,-77.9864,2010,DUKE ENERGY CORP,100.0,DUKE ENERGY CORP,DUK
1004056,LA PAZ COUNTY LANDFILL,39483.5526,562212.0,AZ,33.943591,-114.19503,2010,REPUBLIC SERVICES INC,100.0,REPUBLIC SERVICES INC,RSG
1002208,LAKE AREA DISPOSAL LF,108361.5,562212.0,WI,45.69543,-91.83957,2010,REPUBLIC SERVICES INC,100.0,REPUBLIC SERVICES INC,RSG
1003588,LAKE LANDFILL,19539.401625,562212.0,IL,42.105937,-87.813975,2010,WASTE MANAGEMENT INC,100.0,WASTE MANAGEMENT INC,WM
1007649,LAKE VIEW LDFL,74287.493927,562212.0,PA,42.059457,-80.014484,2010,WASTE MANAGEMENT INC,100.0,WASTE MANAGEMENT INC,WM
1000609,LAMB WESTON INC. Hermiston,29135.44,311411.0,OR,45.806906,-119.366219,2010,LAMB WESTON HOLDINGS INC,100.0,LAMB WESTON HOLDINGS INC,LW
1005651,LAMB WESTON INCORPORATED,41479.144,311411.0,OR,45.845206,-119.680837,2010,LAMB WESTON HOLDINGS INC,100.0,LAMB WESTON HOLDINGS INC,LW
1000606,LAMB WESTON INCORPORATED,50253.46,311411.0,ID,42.765556,-112.913333,2010,LAMB WESTON HOLDINGS INC,100.0,LAMB WESTON HOLDINGS INC,LW
1007841,LANCASTER LANDFILL,27901.965999,562212.0,CA,34.747763,-118.12109,2010,WASTE MANAGEMENT INC,100.0,WASTE MANAGEMENT INC,WM
1002090,LANDCOMP LANDFILL,19193.0,562212.0,IL,41.344022,-88.913,2010,REPUBLIC SERVICES INC,100.0,REPUBLIC SERVICES INC,RSG
1000595,LAS VEGAS GENERATING STATION,164392.808,221112.0,NV,36.23228,-115.12297,2010,BERKSHIRE HATHAWAY INC,100.0,BERKSHIRE HATHAWAY INC,BRK.B
1007586,LAUREL HIGHLANDS LANDFILL,58546.56967,562212.0,PA,40.451699,-78.906873,2010,WASTE MANAGEMENT INC,100.0,WASTE MANAGEMENT INC,WM
1001905,LCC BAYPORT LYONDELL,73912.98,325110.0,TX,29.61,-95.05,2010,LYONDELLBASELL INDUSTRIES INC,100.0,LYONDELLBASELL INDUSTRIES INC,LYB
1007584,LCS SERVICES LANDFILL,19739.903397,562212.0,WV,39.574826,-77.980751,2010,WASTE MANAGEMENT INC,100.0,WASTE MANAGEMENT INC,WM
1003627,LEE COUNTY LANDFILL,147804.53,562212.0,IL,41.734287,-89.294905,2010,REPUBLIC SERVICES INC,100.0,REPUBLIC SERVICES INC,RSG
1002557,LEE COUNTY LANDFILL,146867.5,562212.0,SC,34.189266,-80.284977,2010,REPUBLIC SERVICES INC,100.0,REPUBLIC SERVICES INC,RSG
1007023,LEMONS EAST SANITARY LANDFILL/LEMONS WEST LF,128335.2,562212.0,MO,36.832771,-89.9412,2010,REPUBLIC SERVICES INC,100.0,REPUBLIC SERVICES INC,RSG
1007812,LIBERTY LANDFILL,143373.612086,562212.0,IN,40.883714,-86.704524,2010,WASTE MANAGEMENT INC,100.0,WASTE MANAGEMENT INC,WM
1004469,LILLY DEL CARIBE INC CAROLIN A,24387.246,325412.0,PR,18.354615,-65.945253,2010,ELI LILLY & CO,100.0,ELI LILLY & CO,LLY
1005641,LINAM RANCH GAS PLANT,152700.848,211111.0,NM,32.6953,-103.2853,2010,PHILLIPS 66,86.8,PHILLIPS 66,PSX
1008002,"LINDE GAS NORTH AMERICA LLC, DECATUR PLANT",101633.532,325120.0,AL,34.62946,-87.01574,2010,LINDE INC,100.0,LINDE INC,LIN
1005941,"LINDE GAS NORTH AMERICA LLC, TOLEDO PLANT",564507.0,325120.0,OH,41.636578,-83.495172,2010,LINDE INC,100.0,LINDE INC,LIN
1006302,LITTLE DIXIE LANDFILL,85205.6,562212.0,MS,32.410444,-90.24325,2010,REPUBLIC SERVICES INC,100.0,REPUBLIC SERVICES INC,RSG
1006229,LIVE OAK LANDFILL & RECYLING CENTER,24702.13015,562212.0,GA,33.67103,-84.34245,2010,WASTE MANAGEMENT INC,100.0,WASTE MANAGEMENT INC,WM
1002249,LIVINGSTON LANDFILL,147189.9,562212.0,IL,40.931827,-88.658642,2010,REPUBLIC SERVICES INC,100.0,REPUBLIC SERVICES INC,RSG
1007969,LORAIN COUNTY LANDFILL I & II,174429.4,562212.0,OH,41.294962,-82.169967,2010,REPUBLIC SERVICES INC,100.0,REPUBLIC SERVICES INC,RSG
1000619,LUBRIZOL BAYPORT PLANT,30053.936,325199.0,TX,29.63914,-95.04694,2010,BERKSHIRE HATHAWAY INC,100.0,BERKSHIRE HATHAWAY INC,BRK.B
1000618,LUBRIZOL CORPORATION,30767.676,325199.0,OH,41.720278,-81.273611,2010,BERKSHIRE HATHAWAY INC,100.0,BERKSHIRE HATHAWAY INC,BRK.B
1000620,LUBRIZOL DEER PARK PLANT,104550.356,325199.0,TX,29.71727,-95.11327,2010,BERKSHIRE HATHAWAY INC,100.0,BERKSHIRE HATHAWAY INC,BRK.B
1002355,LUCERNE GAS PLANT,39210.743,486210.0,CO,40.457201,-104.664686,2010,PHILLIPS 66,86.8,PHILLIPS 66,PSX
1004310,LYON DEVELOPMENT LF,8030.0,562212.0,MI,42.5164,-83.6189,2010,REPUBLIC SERVICES INC,100.0,REPUBLIC SERVICES INC,RSG
1007562,LYONDELL CHEMICAL CHANNELVIEW,245492.834,325110.0,TX,29.816654,-95.107603,2010,LYONDELLBASELL INDUSTRIES INC,100.0,LYONDELLBASELL INDUSTRIES INC,LYB
1006539,La Cygne,9129607.96,221112.0,KS,38.3472,-94.6389,2010,EVERGY INC,100.0,EVERGY INC,EVRG
1000192,Labadie,17369494.646,221112.0,MO,38.5583,-90.8361,2010,AMEREN CORP,100.0,AMEREN CORP,AEE
1007814,Lacy Lakeview RDF,103460.694225,562212.0,TX,31.602528,-97.061179,2010,WASTE MANAGEMENT INC,100.0,WASTE MANAGEMENT INC,WM
1001161,Ladysmith Combustion Turbine Sta,491487.818,221112.0,VA,38.064527,-77.508465,2010,DOMINION ENERGY INC,100.0,DOMINION ENERGY INC,D
1001432,Lake Catherine,100328.328,221112.0,AR,34.4341,-92.9046,2010,ENTERGY CORP,100.0,ENTERGY CORP,ETR
1007503,Lake Hubbard,217032.308,221112.0,TX,32.8364,-96.5464,2010,Vistra Corp,100.0,VISTRA CORP,VST
1006852,Lake Road,790396.616,221112.0,MO,39.7246,-94.8773,2010,EVERGY INC,100.0,EVERGY INC,EVRG
1001338,Lake Road Generating Company,1458917.04,221112.0,CT,41.8736,-71.8947,2010,Vistra Corp,100.0,VISTRA CORP,VST
1000454,Lake Side Power Plant,878294.148,221112.0,UT,40.3311,-111.7547,2010,BERKSHIRE HATHAWAY INC,100.0,BERKSHIRE HATHAWAY INC,BRK.B
1002097,Lamar Compressor Station,81296.25,486210.0,TX,33.539586,-95.519739,2010,KINDER MORGAN INC,50.0,KINDER MORGAN INC,KMI
1001310,Lamar Power (Paris),1382139.728,221112.0,TX,33.6314,-95.589,2010,Vistra Corp,100.0,VISTRA CORP,VST
1007677,Lancaster County Resource Recovery Facility,155662.978,562213.0,PA,40.07434,-76.6409,2010,LANCASTER COUNTY SOILD WASTE MANAGEMENT AUTHORITY,100.0,LANCASTER COUNTY SOILD WASTE MANAGEMENT AUTHORITY,WM
1007225,Landfill and Development Company,15061.350675,562212.0,NJ,39.982525,-74.771594,2010,WASTE MANAGEMENT INC,100.0,WASTE MANAGEMENT INC,WM
1007419,Lansing,1345950.322,221112.0,IA,43.3359,-91.1672,2010,ALLIANT ENERGY CORP,100.0,ALLIANT ENERGY CORP,LNT
1001491,Lansing Smith Generating Plant,2914232.046,221112.0,FL,30.2689,-85.7003,2010,NEXTERA ENERGY INC,100.0,NEXTERA ENERGY INC,NEE
1003626,Laubscher Meadows Landfill,29027.5,562212.0,IN,38.040318,-87.591242,2010,REPUBLIC SERVICES INC,100.0,REPUBLIC SERVICES INC,RSG
1007471,Lauderdale,2037558.14,221112.0,FL,26.0681,-80.1983,2010,NEXTERA ENERGY INC,100.0,NEXTERA ENERGY INC,NEE
1003455,"Leidy Station - Dominion Transmission, Inc",55770.04,486210.0,PA,41.42571,-77.85304,2010,BERKSHIRE HATHAWAY INC,100.0,BERKSHIRE HATHAWAY INC,BRK.B
1000928,Lewis Creek,1160567.1,221112.0,TX,30.4364,-95.5215,2010,ENTERGY CORP,100.0,ENTERGY CORP,ETR
1001376,Liberty Electric Power Plant,1222584.22,221112.0,PA,39.8622,-75.3361,2010,Vistra Corp,100.0,VISTRA CORP,VST
1001610,Lieberman Power Plant,83665.272,221112.0,LA,32.7047,-93.9597,2010,AMERICAN ELECTRIC POWER CO INC,100.0,AMERICAN ELECTRIC POWER CO INC,AEP
1005713,Limestone,13070222.021,221112.0,TX,31.4219,-96.2525,2010,NRG ENERGY INC,100.0,NRG ENERGY INC,NRG
1001109,Lincoln,56465.522,221112.0,NC,35.4317,-81.0347,2010,DUKE ENERGY CORP,100.0,DUKE ENERGY CORP,DUK
1002041,"Linde Hydrogen, c/o Chevron Refinery",138295.0,325120.0,UT,40.82147,-111.92162,2010,LINDE INC,100.0,LINDE INC,LIN
1002091,Litchfield-Hillsboro Landfill,15016.3,562212.0,IL,39.174704,-89.623277,2010,REPUBLIC SERVICES INC,100.0,REPUBLIC SERVICES INC,RSG
1001605,Little Gypsy,1111926.906,221112.0,LA,30.0033,-90.4611,2010,ENTERGY CORP,100.0,ENTERGY CORP,ETR
1007295,Livingston Generating Station,16638.14,221112.0,MI,45.0291,-84.7332,2010,CMS ENERGY CORP,100.0,CMS ENERGY CORP,CMS
1007183,Louisa Generation Facility,236495.574,221112.0,VA,38.1181,-78.2139,2010,OLD DOMINION ELECTRIC COOPERATIVE,100.0,OLD DOMINION ELECTRIC COOPERATIVE,ODFL
1001209,Louisiana 1,1908791.724,221112.0,LA,30.4903,-91.1875,2010,ENTERGY CORP,100.0,ENTERGY CORP,ETR
1007756,MAHONING LANDFILL,97351.423425,562212.0,OH,40.917967,-80.582612,2010,WASTE MANAGEMENT INC,100.0,WASTE MANAGEMENT INC,WM
1007633,MALLARD LAKE LANDFILL,28784.048,562212.0,IL,41.952205,-88.13999,2010,REPUBLIC SERVICES INC,100.0,REPUBLIC SERVICES INC,RSG
1002643,MALOY SOLID WASTE LANDFILL,103405.0643,562212.0,TX,33.177689,-95.880534,2010,REPUBLIC SERVICES INC,100.0,REPUBLIC SERVICES INC,RSG
1007028,MANISTEE COUNTY LANDFILL,29194.8,562212.0,MI,44.191356,-86.264558,2010,REPUBLIC SERVICES INC,100.0,REPUBLIC SERVICES INC,RSG
1007610,MAPLEWOOD RECYCLING AND WASTE DISPOSAL,232902.004083,562212.0,VA,37.312186,-78.06143,2010,WASTE MANAGEMENT INC,100.0,WASTE MANAGEMENT INC,WM
1005390,MARATHON PETROLEUM COMPANY LP CANTON REFINERY,517592.054,324110.0,OH,40.7729,-81.4151,2010,MARATHON PETROLEUM CORP,100.0,MARATHON PETROLEUM CORP,MPC
1004097,"MARTIN MARIETTA MAGNESIA SPECIALTIES, LLC",1101476.392,327410.0,OH,41.462857,-83.36746,2010,MARTIN MARIETTA MATERIALS INC,100.0,MARTIN MARIETTA MATERIALS INC,MLM
1005855,"MARTIN MARIETTA MAGNESIA SPECIALTIES, LLC",102351.112,327992.0,MI,44.22714,-86.28836,2010,MARTIN MARIETTA MATERIALS INC,100.0,MARTIN MARIETTA MATERIALS INC,MLM
1003587,MARTONE LANDFILL & GAS GENERATING FACILITY,5991.488958,562212.0,MA,42.3874,-72.07949,2010,WASTE MANAGEMENT INC,100.0,WASTE MANAGEMENT INC,WM
1007435,MASSPOWER,252568.116,221112.0,MA,42.156,-72.5292,2010,Vistra Corp,100.0,VISTRA CORP,VST
1005045,MBI NGLP Mont Belvieu Plant,226859.796,211112.0,TX,29.85031,-94.89191,2010,PHILLIPS 66,10.0,PHILLIPS 66,PSX
1006899,MCCARTY ROAD LANDFILL TX,256024.9,562212.0,TX,29.82204,-95.24071,2010,REPUBLIC SERVICES INC,100.0,REPUBLIC SERVICES INC,RSG
1007580,MCGILL ROAD C & D LANDFILL,20800.237941,562212.0,MI,42.294814,-84.358853,2010,WASTE MANAGEMENT INC,100.0,WASTE MANAGEMENT INC,WM
1007667,MEADOWFILL LANDFILL,186459.278023,562212.0,WV,39.33861,-80.25694,2010,WASTE MANAGEMENT INC,100.0,WASTE MANAGEMENT INC,WM
1007755,MENOMINEE LANDFILL,88303.68754300001,562212.0,MI,45.1882,-87.6383,2010,WASTE MANAGEMENT INC,100.0,WASTE MANAGEMENT INC,WM
1002931,"MEP Atlanta Station 2, TX",33110.78,486210.0,TX,33.056563,-94.186809,2010,KINDER MORGAN INC,50.0,KINDER MORGAN INC,KMI
1002409,"MEP Station 3 Perryville, LA",81012.35,486210.0,LA,32.72533,-92.25085,2010,KINDER MORGAN INC,50.0,KINDER MORGAN INC,KMI
1007059,MERAUX REFINERY,985329.148,324110.0,LA,29.930278,-89.943889,2010,VALERO ENERGY CORP,100.0,VALERO ENERGY CORP,VLO
1003595,MERCK SHARP & DOHME CORP - Stonewall Plant,54856.39,325412.0,VA,38.38433,-78.65199,2010,MERCK & CO INC,100.0,MERCK & CO INC,MRK
1003261,MERCK SHARP & DOHME CORP. - RAHWAY,101586.158,325412.0,NJ,40.612743,-74.260921,2010,MERCK & CO INC,100.0,MERCK & CO INC,MRK
1007893,MESQUITE CREEK LANDFILL,115795.31135,562212.0,TX,29.740436,-98.026688,2010,WASTE MANAGEMENT INC,100.0,WASTE MANAGEMENT INC,WM
1006131,MEWBOURN GAS PLANT,43867.387,211112.0,CO,40.266583,-104.734944,2010,PHILLIPS 66,86.8,PHILLIPS 66,PSX
1002469,MEXIA LANDFILL,11295.0,562212.0,TX,31.61294,-96.503316,2010,REPUBLIC SERVICES INC,100.0,REPUBLIC SERVICES INC,RSG
1006611,MGM RESORTS INTERNATIONAL,129746.92,721120.0,NV,36.189225,-115.188545,2010,MGM RESORTS INTERNATIONAL,100.0,MGM RESORTS INTERNATIONAL,MGM
1006388,MICHIGAN REFININGDIVISION DETROIT REFINERY,634554.27,324110.0,MI,42.282182,-83.158756,2010,MARATHON PETROLEUM CORP,100.0,MARATHON PETROLEUM CORP,MPC
1004325,"MICRON TECHNOLOGY, INC.",33715.372,334413.0,ID,43.5268,-116.1449,2010,MICRON TECHNOLOGY INC,100.0,MICRON TECHNOLOGY INC,MU
1007635,MIDDLE PENINSULA LANDFILL,156322.3489,562212.0,VA,37.521681,-76.624614,2010,WASTE MANAGEMENT INC,100.0,WASTE MANAGEMENT INC,WM
1002650,MIDDLE POINT LANDFILL,334380.0,562212.0,TN,35.941993,-86.361929,2010,REPUBLIC SERVICES INC,100.0,REPUBLIC SERVICES INC,RSG
1002057,MILLERCOORS LLC,90623.916,312120.0,GA,31.5933,-84.08805,2010,MOLSON COORS BEVERAGE CO,100.0,MOLSON COORS BEVERAGE CO,TAP
